结果：$GPRMC,013238,A,4047.533,N,11141.856,E,012.2,253.6,100517,,*1A
$GPGGA,013238,4047.533,N,11141.856,E,1,05,,1108,M,,M,,*57
纬度：4047.533
时间：013238
经度：11141.856
地面速率：012.2
地面航向：253.6
日期：100517
纬度：4047.533
时间：013238
经度：11141.856
状态：1
卫星数量：05
海拔高度：1108
结果：$GPRMC,013239,A,4047.532,N,11141.852,E,011.3,254.3,100517,,*1E
$GPGGA,013239,4047.532,N,11141.852,E,1,05,,1106,M,,M,,*5D
纬度：4047.532
时间：013239
经度：11141.852
地面速率：011.3
地面航向：254.3
日期：100517
纬度：4047.532
时间：013239
经度：11141.852
状态：1
卫星数量：05
海拔高度：1106
结果：$GPRMC,013239,A,4047.532,N,11141.852,E,011.3,254.3,100517,,*1E
$GPGGA,013239,4047.532,N,11141.852,E,1,05,,1106,M,,M,,*5D
纬度：4047.532
时间：013239
经度：11141.852
地面速率：011.3
地面航向：254.3
日期：100517
纬度：4047.532
时间：013239
经度：11141.852
状态：1
卫星数量：05
海拔高度：1106
结果：$GPRMC,013241,A,4047.557,N,11141.837,E,012.3,252.0,100517,,*17
$GPGGA,013241,4047.557,N,11141.837,E,1,06,,1181,M,,M,,*5E
纬度：4047.557
时间：013241
经度：11141.837
地面速率：012.3
地面航向：252.0
日期：100517
纬度：4047.557
时间：013241
经度：11141.837
状态：1
卫星数量：06
海拔高度：1181
结果：$GPRMC,013242,A,4047.563,N,11141.830,E,012.2,255.4,100517,,*16
$GPGGA,013242,4047.563,N,11141.830,E,1,06,,1199,M,,M,,*54
纬度：4047.563
时间：013242
经度：11141.830
地面速率：012.2
地面航向：255.4
日期：100517
纬度：4047.563
时间：013242
经度：11141.830
状态：1
卫星数量：06
海拔高度：1199
结果：$GPRMC,013243,A,4047.561,N,11141.826,E,014.2,257.0,100517,,*12
$GPGGA,013243,4047.561,N,11141.826,E,1,06,,1195,M,,M,,*5C
纬度：4047.561
时间：013243
经度：11141.826
地面速率：014.2
地面航向：257.0
日期：100517
纬度：4047.561
时间：013243
经度：11141.826
状态：1
卫星数量：06
海拔高度：1195
结果：$GPRMC,013244,A,4047.560,N,11141.821,E,014.5,258.9,100517,,*12
$GPGGA,013244,4047.560,N,11141.821,E,1,06,,1194,M,,M,,*5C
纬度：4047.560
时间：013244
经度：11141.821
地面速率：014.5
地面航向：258.9
日期：100517
纬度：4047.560
时间：013244
经度：11141.821
状态：1
卫星数量：06
海拔高度：1194
结果：$GPRMC,013245,A,4047.559,N,11141.815,E,014.7,260.2,100517,,*1C
$GPGGA,013245,4047.559,N,11141.815,E,1,06,,1192,M,,M,,*56
纬度：4047.559
时间：013245
经度：11141.815
地面速率：014.7
地面航向：260.2
日期：100517
纬度：4047.559
时间：013245
经度：11141.815
状态：1
卫星数量：06
海拔高度：1192
结果：$GPRMC,013246,A,4047.560,N,11141.810,E,014.6,259.4,100517,,*1D
$GPGGA,013246,4047.560,N,11141.810,E,1,06,,1194,M,,M,,*5C
纬度：4047.560
时间：013246
经度：11141.810
地面速率：014.6
地面航向：259.4
日期：100517
纬度：4047.560
时间：013246
经度：11141.810
状态：1
卫星数量：06
海拔高度：1194
结果：$GPRMC,013247,A,4047.558,N,11141.806,E,013.9,252.7,100517,,*10
$GPGGA,013247,4047.558,N,11141.806,E,1,06,,1195,M,,M,,*50
纬度：4047.558
时间：013247
经度：11141.806
地面速率：013.9
地面航向：252.7
日期：100517
纬度：4047.558
时间：013247
经度：11141.806
状态：1
卫星数量：06
海拔高度：1195
结果：$GPRMC,013248,A,4047.558,N,11141.800,E,014.7,257.7,100517,,*15
$GPGGA,013248,4047.558,N,11141.800,E,1,06,,1196,M,,M,,*5A
纬度：4047.558
时间：013248
经度：11141.800
地面速率：014.7
地面航向：257.7
日期：100517
纬度：4047.558
时间：013248
经度：11141.800
状态：1
卫星数量：06
海拔高度：1196
结果：$GPRMC,013249,A,4047.555,N,11141.796,E,014.9,259.9,100517,,*17
$GPGGA,013249,4047.555,N,11141.796,E,1,07,,1184,M,,M,,*54
纬度：4047.555
时间：013249
经度：11141.796
地面速率：014.9
地面航向：259.9
日期：100517
纬度：4047.555
时间：013249
经度：11141.796
状态：1
卫星数量：07
海拔高度：1184
结果：$GPRMC,013250,A,4047.551,N,11141.791,E,014.5,258.7,100517,,*1F
$GPGGA,013250,4047.551,N,11141.791,E,1,07,,1174,M,,M,,*50
纬度：4047.551
时间：013250
经度：11141.791
地面速率：014.5
地面航向：258.7
日期：100517
纬度：4047.551
时间：013250
经度：11141.791
状态：1
卫星数量：07
海拔高度：1174
结果：$GPRMC,013251,A,4047.549,N,11141.787,E,012.9,254.0,100517,,*11
$GPGGA,013251,4047.549,N,11141.787,E,1,07,,1167,M,,M,,*5D
纬度：4047.549
时间：013251
经度：11141.787
地面速率：012.9
地面航向：254.0
日期：100517
纬度：4047.549
时间：013251
经度：11141.787
状态：1
卫星数量：07
海拔高度：1167
结果：$GPRMC,013252,A,4047.547,N,11141.783,E,011.1,254.8,100517,,*1B
$GPGGA,013252,4047.547,N,11141.783,E,1,08,,1162,M,,M,,*5E
纬度：4047.547
时间：013252
经度：11141.783
地面速率：011.1
地面航向：254.8
日期：100517
纬度：4047.547
时间：013252
经度：11141.783
状态：1
卫星数量：08
海拔高度：1162
结果：$GPRMC,013253,A,4047.548,N,11141.779,E,010.7,259.7,100517,,*15
$GPGGA,013253,4047.548,N,11141.779,E,1,08,,1159,M,,M,,*5D
纬度：4047.548
时间：013253
经度：11141.779
地面速率：010.7
地面航向：259.7
日期：100517
纬度：4047.548
时间：013253
经度：11141.779
状态：1
卫星数量：08
海拔高度：1159
结果：$GPRMC,013254,A,4047.547,N,11141.776,E,009.6,273.7,100517,,*13
$GPGGA,013254,4047.547,N,11141.776,E,1,08,,1151,M,,M,,*52
纬度：4047.547
时间：013254
经度：11141.776
地面速率：009.6
地面航向：273.7
日期：100517
纬度：4047.547
时间：013254
经度：11141.776
状态：1
卫星数量：08
海拔高度：1151
结果：$GPRMC,013255,A,4047.547,N,11141.771,E,009.3,298.6,100517,,*14
$GPGGA,013255,4047.547,N,11141.771,E,1,08,,1147,M,,M,,*53
纬度：4047.547
时间：013255
经度：11141.771
地面速率：009.3
地面航向：298.6
日期：100517
纬度：4047.547
时间：013255
经度：11141.771
状态：1
卫星数量：08
海拔高度：1147
结果：$GPRMC,013256,A,4047.549,N,11141.769,E,011.0,327.2,100517,,*1B
$GPGGA,013256,4047.549,N,11141.769,E,1,08,,1147,M,,M,,*57
纬度：4047.549
时间：013256
经度：11141.769
地面速率：011.0
地面航向：327.2
日期：100517
纬度：4047.549
时间：013256
经度：11141.769
状态：1
卫星数量：08
海拔高度：1147
结果：$GPRMC,013257,A,4047.552,N,11141.767,E,013.1,338.5,100517,,*14
$GPGGA,013257,4047.552,N,11141.767,E,1,08,,1147,M,,M,,*52
纬度：4047.552
时间：013257
经度：11141.767
地面速率：013.1
地面航向：338.5
日期：100517
纬度：4047.552
时间：013257
经度：11141.767
状态：1
卫星数量：08
海拔高度：1147
结果：$GPRMC,013258,A,4047.556,N,11141.766,E,016.3,341.1,100517,,*13
$GPGGA,013258,4047.556,N,11141.766,E,1,08,,1146,M,,M,,*59
纬度：4047.556
时间：013258
经度：11141.766
地面速率：016.3
地面航向：341.1
日期：100517
纬度：4047.556
时间：013258
经度：11141.766
状态：1
卫星数量：08
海拔高度：1146
结果：$GPRMC,013259,A,4047.560,N,11141.764,E,018.5,340.4,100517,,*19
$GPGGA,013259,4047.560,N,11141.764,E,1,08,,1145,M,,M,,*5C
纬度：4047.560
时间：013259
经度：11141.764
地面速率：018.5
地面航向：340.4
日期：100517
纬度：4047.560
时间：013259
经度：11141.764
状态：1
卫星数量：08
海拔高度：1145
结果：$GPRMC,013300,A,4047.565,N,11141.762,E,020.1,339.9,100517,,*1B
$GPGGA,013300,4047.565,N,11141.762,E,1,08,,1144,M,,M,,*53
纬度：4047.565
时间：013300
经度：11141.762
地面速率：020.1
地面航向：339.9
日期：100517
纬度：4047.565
时间：013300
经度：11141.762
状态：1
卫星数量：08
海拔高度：1144
结果：$GPRMC,013301,A,4047.571,N,11141.759,E,022.2,339.6,100517,,*19
$GPGGA,013301,4047.571,N,11141.759,E,1,08,,1144,M,,M,,*5F
纬度：4047.571
时间：013301
经度：11141.759
地面速率：022.2
地面航向：339.6
日期：100517
纬度：4047.571
时间：013301
经度：11141.759
状态：1
卫星数量：08
海拔高度：1144
结果：$GPRMC,013302,A,4047.577,N,11141.757,E,022.7,339.2,100517,,*13
$GPGGA,013302,4047.577,N,11141.757,E,1,08,,1143,M,,M,,*53
纬度：4047.577
时间：013302
经度：11141.757
地面速率：022.7
地面航向：339.2
日期：100517
纬度：4047.577
时间：013302
经度：11141.757
状态：1
卫星数量：08
海拔高度：1143
结果：$GPRMC,013303,A,4047.583,N,11141.754,E,023.3,338.7,100517,,*1B
$GPGGA,013303,4047.583,N,11141.754,E,1,08,,1142,M,,M,,*5B
纬度：4047.583
时间：013303
经度：11141.754
地面速率：023.3
地面航向：338.7
日期：100517
纬度：4047.583
时间：013303
经度：11141.754
状态：1
卫星数量：08
海拔高度：1142
结果：$GPRMC,013304,A,4047.589,N,11141.751,E,022.5,339.4,100517,,*16
$GPGGA,013304,4047.589,N,11141.751,E,1,08,,1142,M,,M,,*53
纬度：4047.589
时间：013304
经度：11141.751
地面速率：022.5
地面航向：339.4
日期：100517
纬度：4047.589
时间：013304
经度：11141.751
状态：1
卫星数量：08
海拔高度：1142
结果：$GPRMC,013305,A,4047.595,N,11141.748,E,022.2,339.1,100517,,*10
$GPGGA,013305,4047.595,N,11141.748,E,1,08,,1142,M,,M,,*57
纬度：4047.595
时间：013305
经度：11141.748
地面速率：022.2
地面航向：339.1
日期：100517
纬度：4047.595
时间：013305
经度：11141.748
状态：1
卫星数量：08
海拔高度：1142
结果：$GPRMC,013306,A,4047.601,N,11141.746,E,021.9,339.9,100517,,*13
$GPGGA,013306,4047.601,N,11141.746,E,1,08,,1142,M,,M,,*54
纬度：4047.601
时间：013306
经度：11141.746
地面速率：021.9
地面航向：339.9
日期：100517
纬度：4047.601
时间：013306
经度：11141.746
状态：1
卫星数量：08
海拔高度：1142
结果：$GPRMC,013307,A,4047.607,N,11141.743,E,021.4,340.3,100517,,*18
$GPGGA,013307,4047.607,N,11141.743,E,1,08,,1142,M,,M,,*56
纬度：4047.607
时间：013307
经度：11141.743
地面速率：021.4
地面航向：340.3
日期：100517
纬度：4047.607
时间：013307
经度：11141.743
状态：1
卫星数量：08
海拔高度：1142
结果：$GPRMC,013308,A,4047.613,N,11141.741,E,020.6,341.2,100517,,*13
$GPGGA,013308,4047.613,N,11141.741,E,1,08,,1141,M,,M,,*5D
纬度：4047.613
时间：013308
经度：11141.741
地面速率：020.6
地面航向：341.2
日期：100517
纬度：4047.613
时间：013308
经度：11141.741
状态：1
卫星数量：08
海拔高度：1141
结果：$GPRMC,013309,A,4047.618,N,11141.738,E,018.8,342.0,100517,,*13
$GPGGA,013309,4047.618,N,11141.738,E,1,08,,1142,M,,M,,*5A
纬度：4047.618
时间：013309
经度：11141.738
地面速率：018.8
地面航向：342.0
日期：100517
纬度：4047.618
时间：013309
经度：11141.738
状态：1
卫星数量：08
海拔高度：1142
结果：$GPRMC,013310,A,4047.623,N,11141.737,E,016.5,342.1,100517,,*1E
$GPGGA,013310,4047.623,N,11141.737,E,1,08,,1141,M,,M,,*56
纬度：4047.623
时间：013310
经度：11141.737
地面速率：016.5
地面航向：342.1
日期：100517
纬度：4047.623
时间：013310
经度：11141.737
状态：1
卫星数量：08
海拔高度：1141
结果：$GPRMC,013311,A,4047.627,N,11141.735,E,014.8,342.6,100517,,*11
$GPGGA,013311,4047.627,N,11141.735,E,1,09,,1140,M,,M,,*51
纬度：4047.627
时间：013311
经度：11141.735
地面速率：014.8
地面航向：342.6
日期：100517
纬度：4047.627
时间：013311
经度：11141.735
状态：1
卫星数量：09
海拔高度：1140
结果：$GPRMC,013312,A,4047.631,N,11141.734,E,013.2,342.9,100517,,*16
$GPGGA,013312,4047.631,N,11141.734,E,1,09,,1140,M,,M,,*54
纬度：4047.631
时间：013312
经度：11141.734
地面速率：013.2
地面航向：342.9
日期：100517
纬度：4047.631
时间：013312
经度：11141.734
状态：1
卫星数量：09
海拔高度：1140
结果：$GPRMC,013313,A,4047.634,N,11141.733,E,011.6,343.2,100517,,*19
$GPGGA,013313,4047.634,N,11141.733,E,1,09,,1139,M,,M,,*59
纬度：4047.634
时间：013313
经度：11141.733
地面速率：011.6
地面航向：343.2
日期：100517
纬度：4047.634
时间：013313
经度：11141.733
状态：1
卫星数量：09
海拔高度：1139
结果：$GPRMC,013314,A,4047.637,N,11141.732,E,009.7,343.4,100517,,*12
$GPGGA,013314,4047.637,N,11141.732,E,1,09,,1139,M,,M,,*5C
纬度：4047.637
时间：013314
经度：11141.732
地面速率：009.7
地面航向：343.4
日期：100517
纬度：4047.637
时间：013314
经度：11141.732
状态：1
卫星数量：09
海拔高度：1139
结果：$GPRMC,013315,A,4047.639,N,11141.731,E,008.0,343.5,100517,,*19
$GPGGA,013315,4047.639,N,11141.731,E,1,10,,1139,M,,M,,*58
纬度：4047.639
时间：013315
经度：11141.731
地面速率：008.0
地面航向：343.5
日期：100517
纬度：4047.639
时间：013315
经度：11141.731
状态：1
卫星数量：10
海拔高度：1139
结果：$GPRMC,013316,A,4047.641,N,11141.730,E,007.1,343.4,100517,,*1B
$GPGGA,013316,4047.641,N,11141.730,E,1,08,,1140,M,,M,,*52
纬度：4047.641
时间：013316
经度：11141.730
地面速率：007.1
地面航向：343.4
日期：100517
纬度：4047.641
时间：013316
经度：11141.730
状态：1
卫星数量：08
海拔高度：1140
结果：$GPRMC,013317,A,4047.643,N,11141.730,E,007.0,343.3,100517,,*1E
$GPGGA,013317,4047.643,N,11141.730,E,1,08,,1139,M,,M,,*5F
纬度：4047.643
时间：013317
经度：11141.730
地面速率：007.0
地面航向：343.3
日期：100517
纬度：4047.643
时间：013317
经度：11141.730
状态：1
卫星数量：08
海拔高度：1139
结果：$GPRMC,013318,A,4047.645,N,11141.729,E,006.7,343.0,100517,,*1A
$GPGGA,013318,4047.645,N,11141.729,E,1,08,,1139,M,,M,,*5E
纬度：4047.645
时间：013318
经度：11141.729
地面速率：006.7
地面航向：343.0
日期：100517
纬度：4047.645
时间：013318
经度：11141.729
状态：1
卫星数量：08
海拔高度：1139
结果：$GPRMC,013319,A,4047.646,N,11141.728,E,005.6,343.0,100517,,*1B
$GPGGA,013319,4047.646,N,11141.728,E,1,08,,1138,M,,M,,*5C
纬度：4047.646
时间：013319
经度：11141.728
地面速率：005.6
地面航向：343.0
日期：100517
纬度：4047.646
时间：013319
经度：11141.728
状态：1
卫星数量：08
海拔高度：1138
结果：$GPRMC,013320,A,4047.647,N,11141.728,E,003.9,338.0,100517,,*15
$GPGGA,013320,4047.647,N,11141.728,E,1,08,,1137,M,,M,,*58
纬度：4047.647
时间：013320
经度：11141.728
地面速率：003.9
地面航向：338.0
日期：100517
纬度：4047.647
时间：013320
经度：11141.728
状态：1
卫星数量：08
海拔高度：1137
结果：$GPRMC,013321,A,4047.648,N,11141.727,E,002.4,338.0,100517,,*18
$GPGGA,013321,4047.648,N,11141.727,E,1,08,,1137,M,,M,,*59
纬度：4047.648
时间：013321
经度：11141.727
地面速率：002.4
地面航向：338.0
日期：100517
纬度：4047.648
时间：013321
经度：11141.727
状态：1
卫星数量：08
海拔高度：1137
结果：$GPRMC,013322,A,4047.648,N,11141.727,E,001.4,338.0,100517,,*18
$GPGGA,013322,4047.648,N,11141.727,E,1,08,,1136,M,,M,,*5B
纬度：4047.648
时间：013322
经度：11141.727
地面速率：001.4
地面航向：338.0
日期：100517
纬度：4047.648
时间：013322
经度：11141.727
状态：1
卫星数量：08
海拔高度：1136
结果：$GPRMC,013323,A,4047.648,N,11141.727,E,000.9,338.0,100517,,*15
$GPGGA,013323,4047.648,N,11141.727,E,1,09,,1135,M,,M,,*58
纬度：4047.648
时间：013323
经度：11141.727
地面速率：000.9
地面航向：338.0
日期：100517
纬度：4047.648
时间：013323
经度：11141.727
状态：1
卫星数量：09
海拔高度：1135
结果：$GPRMC,013324,A,4047.648,N,11141.727,E,000.9,338.0,100517,,*12
$GPGGA,013324,4047.648,N,11141.727,E,1,09,,1135,M,,M,,*5F
纬度：4047.648
时间：013324
经度：11141.727
地面速率：000.9
地面航向：338.0
日期：100517
纬度：4047.648
时间：013324
经度：11141.727
状态：1
卫星数量：09
海拔高度：1135
结果：$GPRMC,013325,A,4047.617,N,11141.721,E,001.1,338.0,100517,,*16
$GPGGA,013325,4047.617,N,11141.721,E,1,10,,1132,M,,M,,*5D
纬度：4047.617
时间：013325
经度：11141.721
地面速率：001.1
地面航向：338.0
日期：100517
纬度：4047.617
时间：013325
经度：11141.721
状态：1
卫星数量：10
海拔高度：1132
结果：$GPRMC,013326,A,4047.617,N,11141.720,E,001.1,338.0,100517,,*14
$GPGGA,013326,4047.617,N,11141.720,E,1,09,,1128,M,,M,,*5C
纬度：4047.617
时间：013326
经度：11141.720
地面速率：001.1
地面航向：338.0
日期：100517
纬度：4047.617
时间：013326
经度：11141.720
状态：1
卫星数量：09
海拔高度：1128
结果：$GPRMC,013327,A,4047.617,N,11141.721,E,001.0,338.0,100517,,*15
$GPGGA,013327,4047.617,N,11141.721,E,1,09,,1122,M,,M,,*56
纬度：4047.617
时间：013327
经度：11141.721
地面速率：001.0
地面航向：338.0
日期：100517
纬度：4047.617
时间：013327
经度：11141.721
状态：1
卫星数量：09
海拔高度：1122
结果：$GPRMC,013328,A,4047.618,N,11141.722,E,001.3,338.0,100517,,*15
$GPGGA,013328,4047.618,N,11141.722,E,1,09,,1119,M,,M,,*5D
纬度：4047.618
时间：013328
经度：11141.722
地面速率：001.3
地面航向：338.0
日期：100517
纬度：4047.618
时间：013328
经度：11141.722
状态：1
卫星数量：09
海拔高度：1119
结果：$GPRMC,013329,A,4047.618,N,11141.722,E,001.5,338.0,100517,,*12
$GPGGA,013329,4047.618,N,11141.722,E,1,09,,1115,M,,M,,*50
纬度：4047.618
时间：013329
经度：11141.722
地面速率：001.5
地面航向：338.0
日期：100517
纬度：4047.618
时间：013329
经度：11141.722
状态：1
卫星数量：09
海拔高度：1115
结果：$GPRMC,013330,A,4047.618,N,11141.723,E,000.0,338.0,100517,,*1F
$GPGGA,013330,4047.618,N,11141.723,E,1,09,,1113,M,,M,,*5F
纬度：4047.618
时间：013330
经度：11141.723
地面速率：000.0
地面航向：338.0
日期：100517
纬度：4047.618
时间：013330
经度：11141.723
状态：1
卫星数量：09
海拔高度：1113
结果：$GPRMC,013331,A,4047.617,N,11141.726,E,000.0,338.0,100517,,*14
$GPGGA,013331,4047.617,N,11141.726,E,1,10,,1101,M,,M,,*5F
纬度：4047.617
时间：013331
经度：11141.726
地面速率：000.0
地面航向：338.0
日期：100517
纬度：4047.617
时间：013331
经度：11141.726
状态：1
卫星数量：10
海拔高度：1101
结果：$GPRMC,013332,A,4047.616,N,11141.728,E,000.0,338.0,100517,,*18
$GPGGA,013332,4047.616,N,11141.728,E,1,10,,1092,M,,M,,*58
纬度：4047.616
时间：013332
经度：11141.728
地面速率：000.0
地面航向：338.0
日期：100517
纬度：4047.616
时间：013332
经度：11141.728
状态：1
卫星数量：10
海拔高度：1092
结果：$GPRMC,013333,A,4047.617,N,11141.734,E,000.0,338.0,100517,,*15
$GPGGA,013333,4047.617,N,11141.734,E,1,10,,1071,M,,M,,*58
纬度：4047.617
时间：013333
经度：11141.734
地面速率：000.0
地面航向：338.0
日期：100517
纬度：4047.617
时间：013333
经度：11141.734
状态：1
卫星数量：10
海拔高度：1071
结果：$GPRMC,013334,A,4047.617,N,11141.736,E,000.0,338.0,100517,,*10
$GPGGA,013334,4047.617,N,11141.736,E,1,10,,1063,M,,M,,*5E
纬度：4047.617
时间：013334
经度：11141.736
地面速率：000.0
地面航向：338.0
日期：100517
纬度：4047.617
时间：013334
经度：11141.736
状态：1
卫星数量：10
海拔高度：1063
结果：$GPRMC,013335,A,4047.617,N,11141.736,E,000.1,338.0,100517,,*10
$GPGGA,013335,4047.617,N,11141.736,E,1,10,,1062,M,,M,,*5E
纬度：4047.617
时间：013335
经度：11141.736
地面速率：000.1
地面航向：338.0
日期：100517
纬度：4047.617
时间：013335
经度：11141.736
状态：1
卫星数量：10
海拔高度：1062
结果：$GPRMC,013336,A,4047.618,N,11141.736,E,000.2,338.0,100517,,*1F
$GPGGA,013336,4047.618,N,11141.736,E,1,10,,1061,M,,M,,*51
纬度：4047.618
时间：013336
经度：11141.736
地面速率：000.2
地面航向：338.0
日期：100517
纬度：4047.618
时间：013336
经度：11141.736
状态：1
卫星数量：10
海拔高度：1061
结果：$GPRMC,013337,A,4047.618,N,11141.736,E,000.3,338.0,100517,,*1F
$GPGGA,013337,4047.618,N,11141.736,E,1,10,,1060,M,,M,,*51
纬度：4047.618
时间：013337
经度：11141.736
地面速率：000.3
地面航向：338.0
日期：100517
纬度：4047.618
时间：013337
经度：11141.736
状态：1
卫星数量：10
海拔高度：1060
结果：$GPRMC,013338,A,4047.619,N,11141.735,E,000.3,338.0,100517,,*12
$GPGGA,013338,4047.619,N,11141.735,E,1,10,,1060,M,,M,,*5C
纬度：4047.619
时间：013338
经度：11141.735
地面速率：000.3
地面航向：338.0
日期：100517
纬度：4047.619
时间：013338
经度：11141.735
状态：1
卫星数量：10
海拔高度：1060
结果：$GPRMC,013339,A,4047.620,N,11141.735,E,000.1,338.0,100517,,*1B
$GPGGA,013339,4047.620,N,11141.735,E,1,10,,1059,M,,M,,*5D
纬度：4047.620
时间：013339
经度：11141.735
地面速率：000.1
地面航向：338.0
日期：100517
纬度：4047.620
时间：013339
经度：11141.735
状态：1
卫星数量：10
海拔高度：1059
结果：$GPRMC,013340,A,4047.620,N,11141.735,E,000.0,338.0,100517,,*14
$GPGGA,013340,4047.620,N,11141.735,E,1,09,,1058,M,,M,,*5A
纬度：4047.620
时间：013340
经度：11141.735
地面速率：000.0
地面航向：338.0
日期：100517
纬度：4047.620
时间：013340
经度：11141.735
状态：1
卫星数量：09
海拔高度：1058
结果：$GPRMC,013341,A,4047.621,N,11141.735,E,000.0,338.0,100517,,*14
$GPGGA,013341,4047.621,N,11141.735,E,1,09,,1058,M,,M,,*5A
纬度：4047.621
时间：013341
经度：11141.735
地面速率：000.0
地面航向：338.0
日期：100517
纬度：4047.621
时间：013341
经度：11141.735
状态：1
卫星数量：09
海拔高度：1058
结果：$GPRMC,013342,A,4047.621,N,11141.735,E,000.0,338.0,100517,,*17
$GPGGA,013342,4047.621,N,11141.735,E,1,09,,1058,M,,M,,*59
纬度：4047.621
时间：013342
经度：11141.735
地面速率：000.0
地面航向：338.0
日期：100517
纬度：4047.621
时间：013342
经度：11141.735
状态：1
卫星数量：09
海拔高度：1058
结果：$GPRMC,013343,A,4047.621,N,11141.735,E,000.0,338.0,100517,,*16
$GPGGA,013343,4047.621,N,11141.735,E,1,09,,1058,M,,M,,*58
纬度：4047.621
时间：013343
经度：11141.735
地面速率：000.0
地面航向：338.0
日期：100517
纬度：4047.621
时间：013343
经度：11141.735
状态：1
卫星数量：09
海拔高度：1058
结果：$GPRMC,013344,A,4047.621,N,11141.735,E,000.0,338.0,100517,,*11
$GPGGA,013344,4047.621,N,11141.735,E,1,09,,1058,M,,M,,*5F
纬度：4047.621
时间：013344
经度：11141.735
地面速率：000.0
地面航向：338.0
日期：100517
纬度：4047.621
时间：013344
经度：11141.735
状态：1
卫星数量：09
海拔高度：1058
结果：$GPRMC,013345,A,4047.621,N,11141.735,E,000.0,338.0,100517,,*10
$GPGGA,013345,4047.621,N,11141.735,E,1,09,,1058,M,,M,,*5E
纬度：4047.621
时间：013345
经度：11141.735
地面速率：000.0
地面航向：338.0
日期：100517
纬度：4047.621
时间：013345
经度：11141.735
状态：1
卫星数量：09
海拔高度：1058
结果：$GPRMC,013346,A,4047.621,N,11141.735,E,000.0,338.0,100517,,*13
$GPGGA,013346,4047.621,N,11141.735,E,1,09,,1058,M,,M,,*5D
纬度：4047.621
时间：013346
经度：11141.735
地面速率：000.0
地面航向：338.0
日期：100517
纬度：4047.621
时间：013346
经度：11141.735
状态：1
卫星数量：09
海拔高度：1058
结果：$GPRMC,013347,A,4047.621,N,11141.735,E,000.0,338.0,100517,,*12
$GPGGA,013347,4047.621,N,11141.735,E,1,09,,1058,M,,M,,*5C
纬度：4047.621
时间：013347
经度：11141.735
地面速率：000.0
地面航向：338.0
日期：100517
纬度：4047.621
时间：013347
经度：11141.735
状态：1
卫星数量：09
海拔高度：1058
结果：$GPRMC,013348,A,4047.621,N,11141.735,E,000.0,338.0,100517,,*1D
$GPGGA,013348,4047.621,N,11141.735,E,1,09,,1058,M,,M,,*53
纬度：4047.621
时间：013348
经度：11141.735
地面速率：000.0
地面航向：338.0
日期：100517
纬度：4047.621
时间：013348
经度：11141.735
状态：1
卫星数量：09
海拔高度：1058
结果：$GPRMC,013349,A,4047.621,N,11141.735,E,000.0,338.0,100517,,*1C
$GPGGA,013349,4047.621,N,11141.735,E,1,09,,1058,M,,M,,*52
纬度：4047.621
时间：013349
经度：11141.735
地面速率：000.0
地面航向：338.0
日期：100517
纬度：4047.621
时间：013349
经度：11141.735
状态：1
卫星数量：09
海拔高度：1058
结果：$GPRMC,013350,A,4047.621,N,11141.735,E,000.0,338.0,100517,,*14
$GPGGA,013350,4047.621,N,11141.735,E,1,09,,1058,M,,M,,*5A
纬度：4047.621
时间：013350
经度：11141.735
地面速率：000.0
地面航向：338.0
日期：100517
纬度：4047.621
时间：013350
经度：11141.735
状态：1
卫星数量：09
海拔高度：1058
结果：$GPRMC,013351,A,4047.621,N,11141.735,E,000.0,338.0,100517,,*15
$GPGGA,013351,4047.621,N,11141.735,E,1,09,,1058,M,,M,,*5B
纬度：4047.621
时间：013351
经度：11141.735
地面速率：000.0
地面航向：338.0
日期：100517
纬度：4047.621
时间：013351
经度：11141.735
状态：1
卫星数量：09
海拔高度：1058
结果：$GPRMC,013352,A,4047.621,N,11141.735,E,000.0,338.0,100517,,*16
$GPGGA,013352,4047.621,N,11141.735,E,1,09,,1058,M,,M,,*58
纬度：4047.621
时间：013352
经度：11141.735
地面速率：000.0
地面航向：338.0
日期：100517
纬度：4047.621
时间：013352
经度：11141.735
状态：1
卫星数量：09
海拔高度：1058
结果：$GPRMC,013353,A,4047.621,N,11141.735,E,000.0,338.0,100517,,*17
$GPGGA,013353,4047.621,N,11141.735,E,1,09,,1058,M,,M,,*59
纬度：4047.621
时间：013353
经度：11141.735
地面速率：000.0
地面航向：338.0
日期：100517
纬度：4047.621
时间：013353
经度：11141.735
状态：1
卫星数量：09
海拔高度：1058
结果：$GPRMC,013354,A,4047.621,N,11141.735,E,000.0,338.0,100517,,*10
$GPGGA,013354,4047.621,N,11141.735,E,1,09,,1058,M,,M,,*5E
纬度：4047.621
时间：013354
经度：11141.735
地面速率：000.0
地面航向：338.0
日期：100517
纬度：4047.621
时间：013354
经度：11141.735
状态：1
卫星数量：09
海拔高度：1058
结果：$GPRMC,013355,A,4047.621,N,11141.735,E,000.0,338.0,100517,,*11
$GPGGA,013355,4047.621,N,11141.735,E,1,09,,1058,M,,M,,*5F
纬度：4047.621
时间：013355
经度：11141.735
地面速率：000.0
地面航向：338.0
日期：100517
纬度：4047.621
时间：013355
经度：11141.735
状态：1
卫星数量：09
海拔高度：1058
结果：$GPRMC,013356,A,4047.621,N,11141.735,E,000.0,338.0,100517,,*12
$GPGGA,013356,4047.621,N,11141.735,E,1,09,,1058,M,,M,,*5C
纬度：4047.621
时间：013356
经度：11141.735
地面速率：000.0
地面航向：338.0
日期：100517
纬度：4047.621
时间：013356
经度：11141.735
状态：1
卫星数量：09
海拔高度：1058
结果：$GPRMC,013357,A,4047.621,N,11141.735,E,000.0,338.0,100517,,*13
$GPGGA,013357,4047.621,N,11141.735,E,1,10,,1058,M,,M,,*55
纬度：4047.621
时间：013357
经度：11141.735
地面速率：000.0
地面航向：338.0
日期：100517
纬度：4047.621
时间：013357
经度：11141.735
状态：1
卫星数量：10
海拔高度：1058
结果：$GPRMC,013358,A,4047.621,N,11141.735,E,000.0,338.0,100517,,*1C
$GPGGA,013358,4047.621,N,11141.735,E,1,10,,1058,M,,M,,*5A
纬度：4047.621
时间：013358
经度：11141.735
地面速率：000.0
地面航向：338.0
日期：100517
纬度：4047.621
时间：013358
经度：11141.735
状态：1
卫星数量：10
海拔高度：1058
结果：$GPRMC,013359,A,4047.621,N,11141.735,E,000.0,338.0,100517,,*1D
$GPGGA,013359,4047.621,N,11141.735,E,1,10,,1058,M,,M,,*5B
纬度：4047.621
时间：013359
经度：11141.735
地面速率：000.0
地面航向：338.0
日期：100517
纬度：4047.621
时间：013359
经度：11141.735
状态：1
卫星数量：10
海拔高度：1058
结果：$GPRMC,013400,A,4047.621,N,11141.735,E,000.0,338.0,100517,,*16
$GPGGA,013400,4047.621,N,11141.735,E,1,10,,1058,M,,M,,*50
纬度：4047.621
时间：013400
经度：11141.735
地面速率：000.0
地面航向：338.0
日期：100517
纬度：4047.621
时间：013400
经度：11141.735
状态：1
卫星数量：10
海拔高度：1058
结果：$GPRMC,013401,A,4047.621,N,11141.735,E,000.0,338.0,100517,,*17
$GPGGA,013401,4047.621,N,11141.735,E,1,09,,1058,M,,M,,*59
纬度：4047.621
时间：013401
经度：11141.735
地面速率：000.0
地面航向：338.0
日期：100517
纬度：4047.621
时间：013401
经度：11141.735
状态：1
卫星数量：09
海拔高度：1058
结果：$GPRMC,013402,A,4047.621,N,11141.735,E,000.0,338.0,100517,,*14
$GPGGA,013402,4047.621,N,11141.735,E,1,09,,1058,M,,M,,*5A
纬度：4047.621
时间：013402
经度：11141.735
地面速率：000.0
地面航向：338.0
日期：100517
纬度：4047.621
时间：013402
经度：11141.735
状态：1
卫星数量：09
海拔高度：1058
结果：$GPRMC,013403,A,4047.621,N,11141.735,E,000.0,338.0,100517,,*15
$GPGGA,013403,4047.621,N,11141.735,E,1,09,,1058,M,,M,,*5B
纬度：4047.621
时间：013403
经度：11141.735
地面速率：000.0
地面航向：338.0
日期：100517
纬度：4047.621
时间：013403
经度：11141.735
状态：1
卫星数量：09
海拔高度：1058
结果：$GPRMC,013404,A,4047.621,N,11141.735,E,000.0,338.0,100517,,*12
$GPGGA,013404,4047.621,N,11141.735,E,1,09,,1058,M,,M,,*5C
纬度：4047.621
时间：013404
经度：11141.735
地面速率：000.0
地面航向：338.0
日期：100517
纬度：4047.621
时间：013404
经度：11141.735
状态：1
卫星数量：09
海拔高度：1058
结果：$GPRMC,013405,A,4047.621,N,11141.735,E,000.0,338.0,100517,,*13
$GPGGA,013405,4047.621,N,11141.735,E,1,09,,1058,M,,M,,*5D
纬度：4047.621
时间：013405
经度：11141.735
地面速率：000.0
地面航向：338.0
日期：100517
纬度：4047.621
时间：013405
经度：11141.735
状态：1
卫星数量：09
海拔高度：1058
结果：$GPRMC,013406,A,4047.621,N,11141.735,E,000.0,338.0,100517,,*10
$GPGGA,013406,4047.621,N,11141.735,E,1,09,,1058,M,,M,,*5E
纬度：4047.621
时间：013406
经度：11141.735
地面速率：000.0
地面航向：338.0
日期：100517
纬度：4047.621
时间：013406
经度：11141.735
状态：1
卫星数量：09
海拔高度：1058
结果：$GPRMC,013407,A,4047.621,N,11141.735,E,000.0,338.0,100517,,*11
$GPGGA,013407,4047.621,N,11141.735,E,1,09,,1058,M,,M,,*5F
纬度：4047.621
时间：013407
经度：11141.735
地面速率：000.0
地面航向：338.0
日期：100517
纬度：4047.621
时间：013407
经度：11141.735
状态：1
卫星数量：09
海拔高度：1058
结果：$GPRMC,013408,A,4047.621,N,11141.735,E,000.0,338.0,100517,,*1E
$GPGGA,013408,4047.621,N,11141.735,E,1,09,,1058,M,,M,,*50
纬度：4047.621
时间：013408
经度：11141.735
地面速率：000.0
地面航向：338.0
日期：100517
纬度：4047.621
时间：013408
经度：11141.735
状态：1
卫星数量：09
海拔高度：1058
结果：$GPRMC,013409,A,4047.622,N,11141.734,E,000.6,338.0,100517,,*1B
$GPGGA,013409,4047.622,N,11141.734,E,1,09,,1058,M,,M,,*53
纬度：4047.622
时间：013409
经度：11141.734
地面速率：000.6
地面航向：338.0
日期：100517
纬度：4047.622
时间：013409
经度：11141.734
状态：1
卫星数量：09
海拔高度：1058
结果：$GPRMC,013410,A,4047.622,N,11141.734,E,000.8,338.0,100517,,*1D
$GPGGA,013410,4047.622,N,11141.734,E,1,09,,1058,M,,M,,*5B
纬度：4047.622
时间：013410
经度：11141.734
地面速率：000.8
地面航向：338.0
日期：100517
纬度：4047.622
时间：013410
经度：11141.734
状态：1
卫星数量：09
海拔高度：1058
结果：$GPRMC,013411,A,4047.623,N,11141.734,E,001.0,338.0,100517,,*14
$GPGGA,013411,4047.623,N,11141.734,E,1,10,,1058,M,,M,,*53
纬度：4047.623
时间：013411
经度：11141.734
地面速率：001.0
地面航向：338.0
日期：100517
纬度：4047.623
时间：013411
经度：11141.734
状态：1
卫星数量：10
海拔高度：1058
结果：$GPRMC,013412,A,4047.623,N,11141.734,E,001.3,338.0,100517,,*14
$GPGGA,013412,4047.623,N,11141.734,E,1,10,,1058,M,,M,,*50
纬度：4047.623
时间：013412
经度：11141.734
地面速率：001.3
地面航向：338.0
日期：100517
纬度：4047.623
时间：013412
经度：11141.734
状态：1
卫星数量：10
海拔高度：1058
结果：$GPRMC,013413,A,4047.623,N,11141.734,E,001.7,338.0,100517,,*11
$GPGGA,013413,4047.623,N,11141.734,E,1,10,,1058,M,,M,,*51
纬度：4047.623
时间：013413
经度：11141.734
地面速率：001.7
地面航向：338.0
日期：100517
纬度：4047.623
时间：013413
经度：11141.734
状态：1
卫星数量：10
海拔高度：1058
结果：$GPRMC,013414,A,4047.624,N,11141.734,E,002.3,338.0,100517,,*16
$GPGGA,013414,4047.624,N,11141.734,E,1,10,,1058,M,,M,,*51
纬度：4047.624
时间：013414
经度：11141.734
地面速率：002.3
地面航向：338.0
日期：100517
纬度：4047.624
时间：013414
经度：11141.734
状态：1
卫星数量：10
海拔高度：1058
结果：$GPRMC,013415,A,4047.624,N,11141.733,E,003.1,339.1,100517,,*13
$GPGGA,013415,4047.624,N,11141.733,E,1,10,,1058,M,,M,,*57
纬度：4047.624
时间：013415
经度：11141.733
地面速率：003.1
地面航向：339.1
日期：100517
纬度：4047.624
时间：013415
经度：11141.733
状态：1
卫星数量：10
海拔高度：1058
结果：$GPRMC,013416,A,4047.626,N,11141.733,E,001.5,340.7,100517,,*1C
$GPGGA,013416,4047.626,N,11141.733,E,1,10,,1058,M,,M,,*56
纬度：4047.626
时间：013416
经度：11141.733
地面速率：001.5
地面航向：340.7
日期：100517
纬度：4047.626
时间：013416
经度：11141.733
状态：1
卫星数量：10
海拔高度：1058
结果：$GPRMC,013417,A,4047.626,N,11141.733,E,000.0,340.7,100517,,*19
$GPGGA,013417,4047.626,N,11141.733,E,1,10,,1058,M,,M,,*57
纬度：4047.626
时间：013417
经度：11141.733
地面速率：000.0
地面航向：340.7
日期：100517
纬度：4047.626
时间：013417
经度：11141.733
状态：1
卫星数量：10
海拔高度：1058
结果：$GPRMC,013418,A,4047.627,N,11141.733,E,000.0,340.7,100517,,*17
$GPGGA,013418,4047.627,N,11141.733,E,1,10,,1058,M,,M,,*59
纬度：4047.627
时间：013418
经度：11141.733
地面速率：000.0
地面航向：340.7
日期：100517
纬度：4047.627
时间：013418
经度：11141.733
状态：1
卫星数量：10
海拔高度：1058
结果：$GPRMC,013419,A,4047.627,N,11141.733,E,000.0,340.7,100517,,*16
$GPGGA,013419,4047.627,N,11141.733,E,1,10,,1058,M,,M,,*58
纬度：4047.627
时间：013419
经度：11141.733
地面速率：000.0
地面航向：340.7
日期：100517
纬度：4047.627
时间：013419
经度：11141.733
状态：1
卫星数量：10
海拔高度：1058
结果：$GPRMC,013420,A,4047.627,N,11141.733,E,000.0,340.7,100517,,*1C
$GPGGA,013420,4047.627,N,11141.733,E,1,09,,1058,M,,M,,*5A
纬度：4047.627
时间：013420
经度：11141.733
地面速率：000.0
地面航向：340.7
日期：100517
纬度：4047.627
时间：013420
经度：11141.733
状态：1
卫星数量：09
海拔高度：1058
结果：$GPRMC,013421,A,4047.627,N,11141.733,E,000.0,340.7,100517,,*1D
$GPGGA,013421,4047.627,N,11141.733,E,1,09,,1058,M,,M,,*5B
纬度：4047.627
时间：013421
经度：11141.733
地面速率：000.0
地面航向：340.7
日期：100517
纬度：4047.627
时间：013421
经度：11141.733
状态：1
卫星数量：09
海拔高度：1058
结果：$GPRMC,013422,A,4047.627,N,11141.733,E,000.0,340.7,100517,,*1E
$GPGGA,013422,4047.627,N,11141.733,E,1,09,,1058,M,,M,,*58
纬度：4047.627
时间：013422
经度：11141.733
地面速率：000.0
地面航向：340.7
日期：100517
纬度：4047.627
时间：013422
经度：11141.733
状态：1
卫星数量：09
海拔高度：1058
结果：$GPRMC,013423,A,4047.627,N,11141.733,E,000.0,340.7,100517,,*1F
$GPGGA,013423,4047.627,N,11141.733,E,1,08,,1058,M,,M,,*58
纬度：4047.627
时间：013423
经度：11141.733
地面速率：000.0
地面航向：340.7
日期：100517
纬度：4047.627
时间：013423
经度：11141.733
状态：1
卫星数量：08
海拔高度：1058
结果：$GPRMC,013424,A,4047.627,N,11141.733,E,000.0,340.7,100517,,*18
$GPGGA,013424,4047.627,N,11141.733,E,1,10,,1058,M,,M,,*56
纬度：4047.627
时间：013424
经度：11141.733
地面速率：000.0
地面航向：340.7
日期：100517
纬度：4047.627
时间：013424
经度：11141.733
状态：1
卫星数量：10
海拔高度：1058
结果：$GPRMC,013425,A,4047.627,N,11141.733,E,000.0,340.7,100517,,*19
$GPGGA,013425,4047.627,N,11141.733,E,1,09,,1058,M,,M,,*5F
纬度：4047.627
时间：013425
经度：11141.733
地面速率：000.0
地面航向：340.7
日期：100517
纬度：4047.627
时间：013425
经度：11141.733
状态：1
卫星数量：09
海拔高度：1058
结果：$GPRMC,013426,A,4047.627,N,11141.733,E,000.0,340.7,100517,,*1A
$GPGGA,013426,4047.627,N,11141.733,E,1,09,,1058,M,,M,,*5C
纬度：4047.627
时间：013426
经度：11141.733
地面速率：000.0
地面航向：340.7
日期：100517
纬度：4047.627
时间：013426
经度：11141.733
状态：1
卫星数量：09
海拔高度：1058
结果：$GPRMC,013427,A,4047.627,N,11141.733,E,000.0,340.7,100517,,*1B
$GPGGA,013427,4047.627,N,11141.733,E,1,09,,1058,M,,M,,*5D
纬度：4047.627
时间：013427
经度：11141.733
地面速率：000.0
地面航向：340.7
日期：100517
纬度：4047.627
时间：013427
经度：11141.733
状态：1
卫星数量：09
海拔高度：1058
结果：$GPRMC,013428,A,4047.627,N,11141.733,E,000.0,340.7,100517,,*14
$GPGGA,013428,4047.627,N,11141.733,E,1,10,,1058,M,,M,,*5A
纬度：4047.627
时间：013428
经度：11141.733
地面速率：000.0
地面航向：340.7
日期：100517
纬度：4047.627
时间：013428
经度：11141.733
状态：1
卫星数量：10
海拔高度：1058
结果：$GPRMC,013429,A,4047.627,N,11141.733,E,000.0,340.7,100517,,*15
$GPGGA,013429,4047.627,N,11141.733,E,1,10,,1058,M,,M,,*5B
纬度：4047.627
时间：013429
经度：11141.733
地面速率：000.0
地面航向：340.7
日期：100517
纬度：4047.627
时间：013429
经度：11141.733
状态：1
卫星数量：10
海拔高度：1058
结果：$GPRMC,013430,A,4047.627,N,11141.733,E,000.0,340.7,100517,,*1D
$GPGGA,013430,4047.627,N,11141.733,E,1,10,,1058,M,,M,,*53
纬度：4047.627
时间：013430
经度：11141.733
地面速率：000.0
地面航向：340.7
日期：100517
纬度：4047.627
时间：013430
经度：11141.733
状态：1
卫星数量：10
海拔高度：1058
结果：$GPRMC,013431,A,4047.627,N,11141.733,E,000.0,340.7,100517,,*1C
$GPGGA,013431,4047.627,N,11141.733,E,1,10,,1058,M,,M,,*52
纬度：4047.627
时间：013431
经度：11141.733
地面速率：000.0
地面航向：340.7
日期：100517
纬度：4047.627
时间：013431
经度：11141.733
状态：1
卫星数量：10
海拔高度：1058
结果：$GPRMC,013432,A,4047.627,N,11141.733,E,000.0,340.7,100517,,*1F
$GPGGA,013432,4047.627,N,11141.733,E,1,10,,1058,M,,M,,*51
纬度：4047.627
时间：013432
经度：11141.733
地面速率：000.0
地面航向：340.7
日期：100517
纬度：4047.627
时间：013432
经度：11141.733
状态：1
卫星数量：10
海拔高度：1058
结果：$GPRMC,013433,A,4047.627,N,11141.733,E,000.0,340.7,100517,,*1E
$GPGGA,013433,4047.627,N,11141.733,E,1,10,,1058,M,,M,,*50
纬度：4047.627
时间：013433
经度：11141.733
地面速率：000.0
地面航向：340.7
日期：100517
纬度：4047.627
时间：013433
经度：11141.733
状态：1
卫星数量：10
海拔高度：1058
结果：$GPRMC,013434,A,4047.627,N,11141.733,E,000.0,340.7,100517,,*19
$GPGGA,013434,4047.627,N,11141.733,E,1,10,,1058,M,,M,,*57
纬度：4047.627
时间：013434
经度：11141.733
地面速率：000.0
地面航向：340.7
日期：100517
纬度：4047.627
时间：013434
经度：11141.733
状态：1
卫星数量：10
海拔高度：1058
结果：$GPRMC,013435,A,4047.627,N,11141.733,E,000.0,340.7,100517,,*18
$GPGGA,013435,4047.627,N,11141.733,E,1,10,,1058,M,,M,,*56
纬度：4047.627
时间：013435
经度：11141.733
地面速率：000.0
地面航向：340.7
日期：100517
纬度：4047.627
时间：013435
经度：11141.733
状态：1
卫星数量：10
海拔高度：1058
结果：$GPRMC,013436,A,4047.627,N,11141.733,E,000.0,340.7,100517,,*1B
$GPGGA,013436,4047.627,N,11141.733,E,1,10,,1058,M,,M,,*55
纬度：4047.627
时间：013436
经度：11141.733
地面速率：000.0
地面航向：340.7
日期：100517
纬度：4047.627
时间：013436
经度：11141.733
状态：1
卫星数量：10
海拔高度：1058
结果：$GPRMC,013437,A,4047.627,N,11141.733,E,000.4,340.7,100517,,*1E
$GPGGA,013437,4047.627,N,11141.733,E,1,10,,1058,M,,M,,*54
纬度：4047.627
时间：013437
经度：11141.733
地面速率：000.4
地面航向：340.7
日期：100517
纬度：4047.627
时间：013437
经度：11141.733
状态：1
卫星数量：10
海拔高度：1058
结果：$GPRMC,013438,A,4047.627,N,11141.733,E,000.4,340.7,100517,,*11
$GPGGA,013438,4047.627,N,11141.733,E,1,10,,1058,M,,M,,*5B
纬度：4047.627
时间：013438
经度：11141.733
地面速率：000.4
地面航向：340.7
日期：100517
纬度：4047.627
时间：013438
经度：11141.733
状态：1
卫星数量：10
海拔高度：1058
结果：$GPRMC,013439,A,4047.627,N,11141.733,E,000.4,340.7,100517,,*10
$GPGGA,013439,4047.627,N,11141.733,E,1,10,,1058,M,,M,,*5A
纬度：4047.627
时间：013439
经度：11141.733
地面速率：000.4
地面航向：340.7
日期：100517
纬度：4047.627
时间：013439
经度：11141.733
状态：1
卫星数量：10
海拔高度：1058
结果：$GPRMC,013440,A,4047.627,N,11141.733,E,000.6,337.5,100517,,*1E
$GPGGA,013440,4047.627,N,11141.733,E,1,10,,1058,M,,M,,*54
纬度：4047.627
时间：013440
经度：11141.733
地面速率：000.6
地面航向：337.5
日期：100517
纬度：4047.627
时间：013440
经度：11141.733
状态：1
卫星数量：10
海拔高度：1058
结果：$GPRMC,013441,A,4047.627,N,11141.733,E,000.6,349.7,100517,,*14
$GPGGA,013441,4047.627,N,11141.733,E,1,10,,1057,M,,M,,*5A
纬度：4047.627
时间：013441
经度：11141.733
地面速率：000.6
地面航向：349.7
日期：100517
纬度：4047.627
时间：013441
经度：11141.733
状态：1
卫星数量：10
海拔高度：1057
结果：$GPRMC,013442,A,4047.627,N,11141.733,E,000.9,348.5,100517,,*1B
$GPGGA,013442,4047.627,N,11141.733,E,1,10,,1057,M,,M,,*59
纬度：4047.627
时间：013442
经度：11141.733
地面速率：000.9
地面航向：348.5
日期：100517
纬度：4047.627
时间：013442
经度：11141.733
状态：1
卫星数量：10
海拔高度：1057
结果：$GPRMC,013443,A,4047.627,N,11141.733,E,000.9,347.2,100517,,*12
$GPGGA,013443,4047.627,N,11141.733,E,1,10,,1057,M,,M,,*58
纬度：4047.627
时间：013443
经度：11141.733
地面速率：000.9
地面航向：347.2
日期：100517
纬度：4047.627
时间：013443
经度：11141.733
状态：1
卫星数量：10
海拔高度：1057
结果：$GPRMC,013444,A,4047.628,N,11141.732,E,001.1,348.9,100517,,*16
$GPGGA,013444,4047.628,N,11141.732,E,1,10,,1058,M,,M,,*5E
纬度：4047.628
时间：013444
经度：11141.732
地面速率：001.1
地面航向：348.9
日期：100517
纬度：4047.628
时间：013444
经度：11141.732
状态：1
卫星数量：10
海拔高度：1058
结果：$GPRMC,013445,A,4047.628,N,11141.732,E,001.5,340.0,100517,,*12
$GPGGA,013445,4047.628,N,11141.732,E,1,10,,1057,M,,M,,*50
纬度：4047.628
时间：013445
经度：11141.732
地面速率：001.5
地面航向：340.0
日期：100517
纬度：4047.628
时间：013445
经度：11141.732
状态：1
卫星数量：10
海拔高度：1057
结果：$GPRMC,013446,A,4047.628,N,11141.732,E,001.9,341.0,100517,,*1C
$GPGGA,013446,4047.628,N,11141.732,E,1,10,,1057,M,,M,,*53
纬度：4047.628
时间：013446
经度：11141.732
地面速率：001.9
地面航向：341.0
日期：100517
纬度：4047.628
时间：013446
经度：11141.732
状态：1
卫星数量：10
海拔高度：1057
结果：$GPRMC,013447,A,4047.629,N,11141.731,E,002.5,341.4,100517,,*14
$GPGGA,013447,4047.629,N,11141.731,E,1,09,,1057,M,,M,,*58
纬度：4047.629
时间：013447
经度：11141.731
地面速率：002.5
地面航向：341.4
日期：100517
纬度：4047.629
时间：013447
经度：11141.731
状态：1
卫星数量：09
海拔高度：1057
结果：$GPRMC,013448,A,4047.630,N,11141.731,E,004.1,339.1,100517,,*1B
$GPGGA,013448,4047.630,N,11141.731,E,1,09,,1057,M,,M,,*5F
纬度：4047.630
时间：013448
经度：11141.731
地面速率：004.1
地面航向：339.1
日期：100517
纬度：4047.630
时间：013448
经度：11141.731
状态：1
卫星数量：09
海拔高度：1057
结果：$GPRMC,013449,A,4047.631,N,11141.729,E,005.1,337.8,100517,,*14
$GPGGA,013449,4047.631,N,11141.729,E,1,09,,1057,M,,M,,*56
纬度：4047.631
时间：013449
经度：11141.729
地面速率：005.1
地面航向：337.8
日期：100517
纬度：4047.631
时间：013449
经度：11141.729
状态：1
卫星数量：09
海拔高度：1057
结果：$GPRMC,013450,A,4047.633,N,11141.729,E,007.0,337.0,100517,,*15
$GPGGA,013450,4047.633,N,11141.729,E,1,09,,1057,M,,M,,*5C
纬度：4047.633
时间：013450
经度：11141.729
地面速率：007.0
地面航向：337.0
日期：100517
纬度：4047.633
时间：013450
经度：11141.729
状态：1
卫星数量：09
海拔高度：1057
结果：$GPRMC,013451,A,4047.635,N,11141.727,E,007.4,336.4,100517,,*1D
$GPGGA,013451,4047.635,N,11141.727,E,1,09,,1058,M,,M,,*5A
纬度：4047.635
时间：013451
经度：11141.727
地面速率：007.4
地面航向：336.4
日期：100517
纬度：4047.635
时间：013451
经度：11141.727
状态：1
卫星数量：09
海拔高度：1058
结果：$GPRMC,013452,A,4047.637,N,11141.726,E,008.8,335.9,100517,,*10
$GPGGA,013452,4047.637,N,11141.726,E,1,09,,1058,M,,M,,*5A
纬度：4047.637
时间：013452
经度：11141.726
地面速率：008.8
地面航向：335.9
日期：100517
纬度：4047.637
时间：013452
经度：11141.726
状态：1
卫星数量：09
海拔高度：1058
结果：$GPRMC,013453,A,4047.640,N,11141.724,E,009.7,335.1,100517,,*15
$GPGGA,013453,4047.640,N,11141.724,E,1,09,,1058,M,,M,,*59
纬度：4047.640
时间：013453
经度：11141.724
地面速率：009.7
地面航向：335.1
日期：100517
纬度：4047.640
时间：013453
经度：11141.724
状态：1
卫星数量：09
海拔高度：1058
结果：$GPRMC,013454,A,4047.642,N,11141.722,E,009.1,334.8,100517,,*18
$GPGGA,013454,4047.642,N,11141.722,E,1,09,,1058,M,,M,,*5A
纬度：4047.642
时间：013454
经度：11141.722
地面速率：009.1
地面航向：334.8
日期：100517
纬度：4047.642
时间：013454
经度：11141.722
状态：1
卫星数量：09
海拔高度：1058
结果：$GPRMC,013455,A,4047.645,N,11141.721,E,008.4,335.7,100517,,*17
$GPGGA,013455,4047.645,N,11141.721,E,1,09,,1058,M,,M,,*5F
纬度：4047.645
时间：013455
经度：11141.721
地面速率：008.4
地面航向：335.7
日期：100517
纬度：4047.645
时间：013455
经度：11141.721
状态：1
卫星数量：09
海拔高度：1058
结果：$GPRMC,013456,A,4047.647,N,11141.720,E,009.3,337.2,100517,,*16
$GPGGA,013456,4047.647,N,11141.720,E,1,09,,1058,M,,M,,*5F
纬度：4047.647
时间：013456
经度：11141.720
地面速率：009.3
地面航向：337.2
日期：100517
纬度：4047.647
时间：013456
经度：11141.720
状态：1
卫星数量：09
海拔高度：1058
结果：$GPRMC,013457,A,4047.649,N,11141.719,E,008.8,338.4,100517,,*10
$GPGGA,013457,4047.649,N,11141.719,E,1,09,,1058,M,,M,,*5A
纬度：4047.649
时间：013457
经度：11141.719
地面速率：008.8
地面航向：338.4
日期：100517
纬度：4047.649
时间：013457
经度：11141.719
状态：1
卫星数量：09
海拔高度：1058
结果：$GPRMC,013458,A,4047.651,N,11141.718,E,008.5,340.7,100517,,*16
$GPGGA,013458,4047.651,N,11141.718,E,1,09,,1058,M,,M,,*5D
纬度：4047.651
时间：013458
经度：11141.718
地面速率：008.5
地面航向：340.7
日期：100517
纬度：4047.651
时间：013458
经度：11141.718
状态：1
卫星数量：09
海拔高度：1058
结果：$GPRMC,013459,A,4047.654,N,11141.717,E,010.0,343.2,100517,,*17
$GPGGA,013459,4047.654,N,11141.717,E,1,10,,1058,M,,M,,*5E
纬度：4047.654
时间：013459
经度：11141.717
地面速率：010.0
地面航向：343.2
日期：100517
纬度：4047.654
时间：013459
经度：11141.717
状态：1
卫星数量：10
海拔高度：1058
结果：$GPRMC,013500,A,4047.657,N,11141.716,E,011.9,345.1,100517,,*15
$GPGGA,013500,4047.657,N,11141.716,E,1,10,,1058,M,,M,,*51
纬度：4047.657
时间：013500
经度：11141.716
地面速率：011.9
地面航向：345.1
日期：100517
纬度：4047.657
时间：013500
经度：11141.716
状态：1
卫星数量：10
海拔高度：1058
结果：$GPRMC,013501,A,4047.660,N,11141.715,E,012.3,345.6,100517,,*1D
$GPGGA,013501,4047.660,N,11141.715,E,1,10,,1057,M,,M,,*58
纬度：4047.660
时间：013501
经度：11141.715
地面速率：012.3
地面航向：345.6
日期：100517
纬度：4047.660
时间：013501
经度：11141.715
状态：1
卫星数量：10
海拔高度：1057
结果：$GPRMC,013502,A,4047.664,N,11141.714,E,012.0,346.5,100517,,*18
$GPGGA,013502,4047.664,N,11141.714,E,1,10,,1057,M,,M,,*5E
纬度：4047.664
时间：013502
经度：11141.714
地面速率：012.0
地面航向：346.5
日期：100517
纬度：4047.664
时间：013502
经度：11141.714
状态：1
卫星数量：10
海拔高度：1057
结果：$GPRMC,013503,A,4047.667,N,11141.713,E,012.9,345.5,100517,,*17
$GPGGA,013503,4047.667,N,11141.713,E,1,10,,1057,M,,M,,*5B
纬度：4047.667
时间：013503
经度：11141.713
地面速率：012.9
地面航向：345.5
日期：100517
纬度：4047.667
时间：013503
经度：11141.713
状态：1
卫星数量：10
海拔高度：1057
结果：$GPRMC,013504,A,4047.670,N,11141.711,E,012.3,343.8,100517,,*15
$GPGGA,013504,4047.670,N,11141.711,E,1,09,,1058,M,,M,,*5F
纬度：4047.670
时间：013504
经度：11141.711
地面速率：012.3
地面航向：343.8
日期：100517
纬度：4047.670
时间：013504
经度：11141.711
状态：1
卫星数量：09
海拔高度：1058
结果：$GPRMC,013505,A,4047.674,N,11141.709,E,012.4,342.7,100517,,*10
$GPGGA,013505,4047.674,N,11141.709,E,1,10,,1057,M,,M,,*54
纬度：4047.674
时间：013505
经度：11141.709
地面速率：012.4
地面航向：342.7
日期：100517
纬度：4047.674
时间：013505
经度：11141.709
状态：1
卫星数量：10
海拔高度：1057
结果：$GPRMC,013506,A,4047.677,N,11141.708,E,012.1,342.1,100517,,*12
$GPGGA,013506,4047.677,N,11141.708,E,1,09,,1057,M,,M,,*5D
纬度：4047.677
时间：013506
经度：11141.708
地面速率：012.1
地面航向：342.1
日期：100517
纬度：4047.677
时间：013506
经度：11141.708
状态：1
卫星数量：09
海拔高度：1057
结果：$GPRMC,013507,A,4047.680,N,11141.707,E,011.8,341.1,100517,,*1D
$GPGGA,013507,4047.680,N,11141.707,E,1,09,,1057,M,,M,,*5B
纬度：4047.680
时间：013507
经度：11141.707
地面速率：011.8
地面航向：341.1
日期：100517
纬度：4047.680
时间：013507
经度：11141.707
状态：1
卫星数量：09
海拔高度：1057
结果：$GPRMC,013508,A,4047.683,N,11141.705,E,011.3,340.8,100517,,*10
$GPGGA,013508,4047.683,N,11141.705,E,1,09,,1057,M,,M,,*55
纬度：4047.683
时间：013508
经度：11141.705
地面速率：011.3
地面航向：340.8
日期：100517
纬度：4047.683
时间：013508
经度：11141.705
状态：1
卫星数量：09
海拔高度：1057
结果：$GPRMC,013509,A,4047.686,N,11141.704,E,009.5,341.0,100517,,*13
$GPGGA,013509,4047.686,N,11141.704,E,1,09,,1057,M,,M,,*50
纬度：4047.686
时间：013509
经度：11141.704
地面速率：009.5
地面航向：341.0
日期：100517
纬度：4047.686
时间：013509
经度：11141.704
状态：1
卫星数量：09
海拔高度：1057
结果：$GPRMC,013510,A,4047.688,N,11141.704,E,008.9,340.9,100517,,*10
$GPGGA,013510,4047.688,N,11141.704,E,1,09,,1058,M,,M,,*59
纬度：4047.688
时间：013510
经度：11141.704
地面速率：008.9
地面航向：340.9
日期：100517
纬度：4047.688
时间：013510
经度：11141.704
状态：1
卫星数量：09
海拔高度：1058
结果：$GPRMC,013511,A,4047.690,N,11141.703,E,009.0,341.5,100517,,*1A
$GPGGA,013511,4047.690,N,11141.703,E,1,09,,1058,M,,M,,*56
纬度：4047.690
时间：013511
经度：11141.703
地面速率：009.0
地面航向：341.5
日期：100517
纬度：4047.690
时间：013511
经度：11141.703
状态：1
卫星数量：09
海拔高度：1058
结果：$GPRMC,013512,A,4047.693,N,11141.702,E,009.4,342.1,100517,,*18
$GPGGA,013512,4047.693,N,11141.702,E,1,09,,1057,M,,M,,*58
纬度：4047.693
时间：013512
经度：11141.702
地面速率：009.4
地面航向：342.1
日期：100517
纬度：4047.693
时间：013512
经度：11141.702
状态：1
卫星数量：09
海拔高度：1057
结果：$GPRMC,013513,A,4047.695,N,11141.701,E,008.3,343.1,100517,,*1B
$GPGGA,013513,4047.695,N,11141.701,E,1,09,,1057,M,,M,,*5C
纬度：4047.695
时间：013513
经度：11141.701
地面速率：008.3
地面航向：343.1
日期：100517
纬度：4047.695
时间：013513
经度：11141.701
状态：1
卫星数量：09
海拔高度：1057
结果：$GPRMC,013514,A,4047.697,N,11141.701,E,006.0,342.0,100517,,*13
$GPGGA,013514,4047.697,N,11141.701,E,1,09,,1057,M,,M,,*59
纬度：4047.697
时间：013514
经度：11141.701
地面速率：006.0
地面航向：342.0
日期：100517
纬度：4047.697
时间：013514
经度：11141.701
状态：1
卫星数量：09
海拔高度：1057
结果：$GPRMC,013515,A,4047.699,N,11141.700,E,005.3,341.7,100517,,*19
$GPGGA,013515,4047.699,N,11141.700,E,1,09,,1057,M,,M,,*57
纬度：4047.699
时间：013515
经度：11141.700
地面速率：005.3
地面航向：341.7
日期：100517
纬度：4047.699
时间：013515
经度：11141.700
状态：1
卫星数量：09
海拔高度：1057
结果：$GPRMC,013516,A,4047.700,N,11141.700,E,004.9,343.9,100517,,*1C
$GPGGA,013516,4047.700,N,11141.700,E,1,09,,1056,M,,M,,*54
纬度：4047.700
时间：013516
经度：11141.700
地面速率：004.9
地面航向：343.9
日期：100517
纬度：4047.700
时间：013516
经度：11141.700
状态：1
卫星数量：09
海拔高度：1056
结果：$GPRMC,013517,A,4047.701,N,11141.699,E,002.4,343.9,100517,,*16
$GPGGA,013517,4047.701,N,11141.699,E,1,09,,1056,M,,M,,*55
纬度：4047.701
时间：013517
经度：11141.699
地面速率：002.4
地面航向：343.9
日期：100517
纬度：4047.701
时间：013517
经度：11141.699
状态：1
卫星数量：09
海拔高度：1056
结果：$GPRMC,013518,A,4047.702,N,11141.700,E,002.0,343.9,100517,,*1F
$GPGGA,013518,4047.702,N,11141.700,E,1,09,,1056,M,,M,,*58
纬度：4047.702
时间：013518
经度：11141.700
地面速率：002.0
地面航向：343.9
日期：100517
纬度：4047.702
时间：013518
经度：11141.700
状态：1
卫星数量：09
海拔高度：1056
结果：$GPRMC,013519,A,4047.702,N,11141.700,E,002.3,343.9,100517,,*1D
$GPGGA,013519,4047.702,N,11141.700,E,1,09,,1057,M,,M,,*58
纬度：4047.702
时间：013519
经度：11141.700
地面速率：002.3
地面航向：343.9
日期：100517
纬度：4047.702
时间：013519
经度：11141.700
状态：1
卫星数量：09
海拔高度：1057
结果：$GPRMC,013520,A,4047.703,N,11141.701,E,003.1,333.9,100517,,*13
$GPGGA,013520,4047.703,N,11141.701,E,1,09,,1057,M,,M,,*52
纬度：4047.703
时间：013520
经度：11141.701
地面速率：003.1
地面航向：333.9
日期：100517
纬度：4047.703
时间：013520
经度：11141.701
状态：1
卫星数量：09
海拔高度：1057
结果：$GPRMC,013521,A,4047.704,N,11141.700,E,005.7,334.5,100517,,*1F
$GPGGA,013521,4047.704,N,11141.700,E,1,08,,1057,M,,M,,*54
纬度：4047.704
时间：013521
经度：11141.700
地面速率：005.7
地面航向：334.5
日期：100517
纬度：4047.704
时间：013521
经度：11141.700
状态：1
卫星数量：08
海拔高度：1057
结果：$GPRMC,013522,A,4047.706,N,11141.700,E,009.4,335.5,100517,,*10
$GPGGA,013522,4047.706,N,11141.700,E,1,08,,1057,M,,M,,*55
纬度：4047.706
时间：013522
经度：11141.700
地面速率：009.4
地面航向：335.5
日期：100517
纬度：4047.706
时间：013522
经度：11141.700
状态：1
卫星数量：08
海拔高度：1057
结果：$GPRMC,013523,A,4047.710,N,11141.699,E,013.1,336.1,100517,,*1E
$GPGGA,013523,4047.710,N,11141.699,E,1,08,,1057,M,,M,,*52
纬度：4047.710
时间：013523
经度：11141.699
地面速率：013.1
地面航向：336.1
日期：100517
纬度：4047.710
时间：013523
经度：11141.699
状态：1
卫星数量：08
海拔高度：1057
结果：$GPRMC,013524,A,4047.713,N,11141.698,E,013.1,336.7,100517,,*1D
$GPGGA,013524,4047.713,N,11141.698,E,1,08,,1057,M,,M,,*57
纬度：4047.713
时间：013524
经度：11141.698
地面速率：013.1
地面航向：336.7
日期：100517
纬度：4047.713
时间：013524
经度：11141.698
状态：1
卫星数量：08
海拔高度：1057
结果：$GPRMC,013525,A,4047.716,N,11141.697,E,009.2,339.7,100517,,*11
$GPGGA,013525,4047.716,N,11141.697,E,1,08,,1057,M,,M,,*5C
纬度：4047.716
时间：013525
经度：11141.697
地面速率：009.2
地面航向：339.7
日期：100517
纬度：4047.716
时间：013525
经度：11141.697
状态：1
卫星数量：08
海拔高度：1057
结果：$GPRMC,013526,A,4047.718,N,11141.696,E,004.5,347.2,100517,,*1B
$GPGGA,013526,4047.718,N,11141.696,E,1,08,,1057,M,,M,,*50
纬度：4047.718
时间：013526
经度：11141.696
地面速率：004.5
地面航向：347.2
日期：100517
纬度：4047.718
时间：013526
经度：11141.696
状态：1
卫星数量：08
海拔高度：1057
结果：$GPRMC,013527,A,4047.719,N,11141.696,E,000.0,347.2,100517,,*1A
$GPGGA,013527,4047.719,N,11141.696,E,1,08,,1057,M,,M,,*50
纬度：4047.719
时间：013527
经度：11141.696
地面速率：000.0
地面航向：347.2
日期：100517
纬度：4047.719
时间：013527
经度：11141.696
状态：1
卫星数量：08
海拔高度：1057
结果：$GPRMC,013528,A,4047.719,N,11141.696,E,000.0,347.2,100517,,*15
$GPGGA,013528,4047.719,N,11141.696,E,1,08,,1057,M,,M,,*5F
纬度：4047.719
时间：013528
经度：11141.696
地面速率：000.0
地面航向：347.2
日期：100517
纬度：4047.719
时间：013528
经度：11141.696
状态：1
卫星数量：08
海拔高度：1057
结果：$GPRMC,013529,A,4047.719,N,11141.695,E,000.0,347.2,100517,,*17
$GPGGA,013529,4047.719,N,11141.695,E,1,08,,1057,M,,M,,*5D
纬度：4047.719
时间：013529
经度：11141.695
地面速率：000.0
地面航向：347.2
日期：100517
纬度：4047.719
时间：013529
经度：11141.695
状态：1
卫星数量：08
海拔高度：1057
结果：$GPRMC,013530,A,4047.719,N,11141.695,E,000.0,347.2,100517,,*1F
$GPGGA,013530,4047.719,N,11141.695,E,1,07,,1057,M,,M,,*5A
纬度：4047.719
时间：013530
经度：11141.695
地面速率：000.0
地面航向：347.2
日期：100517
纬度：4047.719
时间：013530
经度：11141.695
状态：1
卫星数量：07
海拔高度：1057
结果：$GPRMC,013531,A,4047.719,N,11141.695,E,000.0,347.2,100517,,*1E
$GPGGA,013531,4047.719,N,11141.695,E,1,08,,1057,M,,M,,*54
纬度：4047.719
时间：013531
经度：11141.695
地面速率：000.0
地面航向：347.2
日期：100517
纬度：4047.719
时间：013531
经度：11141.695
状态：1
卫星数量：08
海拔高度：1057
结果：$GPRMC,013532,A,4047.719,N,11141.695,E,000.0,347.2,100517,,*1D
$GPGGA,013532,4047.719,N,11141.695,E,1,08,,1057,M,,M,,*57
纬度：4047.719
时间：013532
经度：11141.695
地面速率：000.0
地面航向：347.2
日期：100517
纬度：4047.719
时间：013532
经度：11141.695
状态：1
卫星数量：08
海拔高度：1057
结果：$GPRMC,013533,A,4047.719,N,11141.695,E,000.0,347.2,100517,,*1C
$GPGGA,013533,4047.719,N,11141.695,E,1,08,,1057,M,,M,,*56
纬度：4047.719
时间：013533
经度：11141.695
地面速率：000.0
地面航向：347.2
日期：100517
纬度：4047.719
时间：013533
经度：11141.695
状态：1
卫星数量：08
海拔高度：1057
结果：$GPRMC,013534,A,4047.719,N,11141.695,E,000.0,347.2,100517,,*1B
$GPGGA,013534,4047.719,N,11141.695,E,1,08,,1057,M,,M,,*51
纬度：4047.719
时间：013534
经度：11141.695
地面速率：000.0
地面航向：347.2
日期：100517
纬度：4047.719
时间：013534
经度：11141.695
状态：1
卫星数量：08
海拔高度：1057
结果：$GPRMC,013535,A,4047.719,N,11141.695,E,000.0,347.2,100517,,*1A
$GPGGA,013535,4047.719,N,11141.695,E,1,07,,1057,M,,M,,*5F
纬度：4047.719
时间：013535
经度：11141.695
地面速率：000.0
地面航向：347.2
日期：100517
纬度：4047.719
时间：013535
经度：11141.695
状态：1
卫星数量：07
海拔高度：1057
结果：$GPRMC,013536,A,4047.719,N,11141.695,E,000.0,347.2,100517,,*19
$GPGGA,013536,4047.719,N,11141.695,E,1,07,,1057,M,,M,,*5C
纬度：4047.719
时间：013536
经度：11141.695
地面速率：000.0
地面航向：347.2
日期：100517
纬度：4047.719
时间：013536
经度：11141.695
状态：1
卫星数量：07
海拔高度：1057
结果：$GPRMC,013537,A,4047.719,N,11141.695,E,000.0,347.2,100517,,*18
$GPGGA,013537,4047.719,N,11141.695,E,1,07,,1057,M,,M,,*5D
纬度：4047.719
时间：013537
经度：11141.695
地面速率：000.0
地面航向：347.2
日期：100517
纬度：4047.719
时间：013537
经度：11141.695
状态：1
卫星数量：07
海拔高度：1057
结果：$GPRMC,013538,A,4047.719,N,11141.695,E,000.0,347.2,100517,,*17
$GPGGA,013538,4047.719,N,11141.695,E,1,07,,1057,M,,M,,*52
纬度：4047.719
时间：013538
经度：11141.695
地面速率：000.0
地面航向：347.2
日期：100517
纬度：4047.719
时间：013538
经度：11141.695
状态：1
卫星数量：07
海拔高度：1057
结果：$GPRMC,013539,A,4047.719,N,11141.695,E,000.0,347.2,100517,,*16
$GPGGA,013539,4047.719,N,11141.695,E,1,07,,1057,M,,M,,*53
纬度：4047.719
时间：013539
经度：11141.695
地面速率：000.0
地面航向：347.2
日期：100517
纬度：4047.719
时间：013539
经度：11141.695
状态：1
卫星数量：07
海拔高度：1057
结果：$GPRMC,013540,A,4047.719,N,11141.695,E,000.0,347.2,100517,,*18
$GPGGA,013540,4047.719,N,11141.695,E,1,07,,1057,M,,M,,*5D
纬度：4047.719
时间：013540
经度：11141.695
地面速率：000.0
地面航向：347.2
日期：100517
纬度：4047.719
时间：013540
经度：11141.695
状态：1
卫星数量：07
海拔高度：1057
结果：$GPRMC,013541,A,4047.719,N,11141.695,E,000.0,347.2,100517,,*19
$GPGGA,013541,4047.719,N,11141.695,E,2,07,,1057,M,,M,,*5F
纬度：4047.719
时间：013541
经度：11141.695
地面速率：000.0
地面航向：347.2
日期：100517
纬度：4047.719
时间：013541
经度：11141.695
状态：2
卫星数量：07
海拔高度：1057
结果：$GPRMC,013542,A,4047.719,N,11141.695,E,000.0,347.2,100517,,*1A
$GPGGA,013542,4047.719,N,11141.695,E,2,07,,1057,M,,M,,*5C
纬度：4047.719
时间：013542
经度：11141.695
地面速率：000.0
地面航向：347.2
日期：100517
纬度：4047.719
时间：013542
经度：11141.695
状态：2
卫星数量：07
海拔高度：1057
结果：$GPRMC,013543,A,4047.719,N,11141.695,E,000.0,347.2,100517,,*1B
$GPGGA,013543,4047.719,N,11141.695,E,2,07,,1057,M,,M,,*5D
纬度：4047.719
时间：013543
经度：11141.695
地面速率：000.0
地面航向：347.2
日期：100517
纬度：4047.719
时间：013543
经度：11141.695
状态：2
卫星数量：07
海拔高度：1057
结果：$GPRMC,013544,A,4047.719,N,11141.695,E,000.0,347.2,100517,,*1C
$GPGGA,013544,4047.719,N,11141.695,E,2,07,,1057,M,,M,,*5A
纬度：4047.719
时间：013544
经度：11141.695
地面速率：000.0
地面航向：347.2
日期：100517
纬度：4047.719
时间：013544
经度：11141.695
状态：2
卫星数量：07
海拔高度：1057
结果：$GPRMC,013545,A,4047.719,N,11141.695,E,000.0,347.2,100517,,*1D
$GPGGA,013545,4047.719,N,11141.695,E,2,07,,1057,M,,M,,*5B
纬度：4047.719
时间：013545
经度：11141.695
地面速率：000.0
地面航向：347.2
日期：100517
纬度：4047.719
时间：013545
经度：11141.695
状态：2
卫星数量：07
海拔高度：1057
结果：$GPRMC,013546,A,4047.719,N,11141.695,E,000.0,347.2,100517,,*1E
$GPGGA,013546,4047.719,N,11141.695,E,2,07,,1057,M,,M,,*58
纬度：4047.719
时间：013546
经度：11141.695
地面速率：000.0
地面航向：347.2
日期：100517
纬度：4047.719
时间：013546
经度：11141.695
状态：2
卫星数量：07
海拔高度：1057
结果：$GPRMC,013547,A,4047.719,N,11141.695,E,000.0,347.2,100517,,*1F
$GPGGA,013547,4047.719,N,11141.695,E,2,07,,1057,M,,M,,*59
纬度：4047.719
时间：013547
经度：11141.695
地面速率：000.0
地面航向：347.2
日期：100517
纬度：4047.719
时间：013547
经度：11141.695
状态：2
卫星数量：07
海拔高度：1057
结果：$GPRMC,013548,A,4047.719,N,11141.695,E,000.0,347.2,100517,,*10
$GPGGA,013548,4047.719,N,11141.695,E,2,07,,1057,M,,M,,*56
纬度：4047.719
时间：013548
经度：11141.695
地面速率：000.0
地面航向：347.2
日期：100517
纬度：4047.719
时间：013548
经度：11141.695
状态：2
卫星数量：07
海拔高度：1057
结果：$GPRMC,013549,A,4047.719,N,11141.695,E,000.0,347.2,100517,,*11
$GPGGA,013549,4047.719,N,11141.695,E,2,07,,1057,M,,M,,*57
纬度：4047.719
时间：013549
经度：11141.695
地面速率：000.0
地面航向：347.2
日期：100517
纬度：4047.719
时间：013549
经度：11141.695
状态：2
卫星数量：07
海拔高度：1057
结果：$GPRMC,013550,A,4047.719,N,11141.695,E,000.0,347.2,100517,,*19
$GPGGA,013550,4047.719,N,11141.695,E,2,07,,1057,M,,M,,*5F
纬度：4047.719
时间：013550
经度：11141.695
地面速率：000.0
地面航向：347.2
日期：100517
纬度：4047.719
时间：013550
经度：11141.695
状态：2
卫星数量：07
海拔高度：1057
结果：$GPRMC,013551,A,4047.719,N,11141.695,E,000.0,347.2,100517,,*18
$GPGGA,013551,4047.719,N,11141.695,E,2,07,,1057,M,,M,,*5E
纬度：4047.719
时间：013551
经度：11141.695
地面速率：000.0
地面航向：347.2
日期：100517
纬度：4047.719
时间：013551
经度：11141.695
状态：2
卫星数量：07
海拔高度：1057
结果：$GPRMC,013552,A,4047.719,N,11141.695,E,000.0,347.2,100517,,*1B
$GPGGA,013552,4047.719,N,11141.695,E,2,07,,1057,M,,M,,*5D
纬度：4047.719
时间：013552
经度：11141.695
地面速率：000.0
地面航向：347.2
日期：100517
纬度：4047.719
时间：013552
经度：11141.695
状态：2
卫星数量：07
海拔高度：1057
结果：$GPRMC,013553,A,4047.719,N,11141.695,E,000.0,347.2,100517,,*1A
$GPGGA,013553,4047.719,N,11141.695,E,2,07,,1057,M,,M,,*5C
纬度：4047.719
时间：013553
经度：11141.695
地面速率：000.0
地面航向：347.2
日期：100517
纬度：4047.719
时间：013553
经度：11141.695
状态：2
卫星数量：07
海拔高度：1057
结果：$GPRMC,013554,A,4047.719,N,11141.695,E,000.0,347.2,100517,,*1D
$GPGGA,013554,4047.719,N,11141.695,E,2,08,,1057,M,,M,,*54
纬度：4047.719
时间：013554
经度：11141.695
地面速率：000.0
地面航向：347.2
日期：100517
纬度：4047.719
时间：013554
经度：11141.695
状态：2
卫星数量：08
海拔高度：1057
结果：$GPRMC,013555,A,4047.719,N,11141.695,E,000.0,347.2,100517,,*1C
$GPGGA,013555,4047.719,N,11141.695,E,2,08,,1057,M,,M,,*55
纬度：4047.719
时间：013555
经度：11141.695
地面速率：000.0
地面航向：347.2
日期：100517
纬度：4047.719
时间：013555
经度：11141.695
状态：2
卫星数量：08
海拔高度：1057
结果：$GPRMC,013556,A,4047.719,N,11141.695,E,000.0,347.2,100517,,*1F
$GPGGA,013556,4047.719,N,11141.695,E,2,08,,1057,M,,M,,*56
纬度：4047.719
时间：013556
经度：11141.695
地面速率：000.0
地面航向：347.2
日期：100517
纬度：4047.719
时间：013556
经度：11141.695
状态：2
卫星数量：08
海拔高度：1057
结果：$GPRMC,013557,A,4047.719,N,11141.695,E,000.0,347.2,100517,,*1E
$GPGGA,013557,4047.719,N,11141.695,E,2,08,,1057,M,,M,,*57
纬度：4047.719
时间：013557
经度：11141.695
地面速率：000.0
地面航向：347.2
日期：100517
纬度：4047.719
时间：013557
经度：11141.695
状态：2
卫星数量：08
海拔高度：1057
结果：$GPRMC,013558,A,4047.719,N,11141.695,E,000.0,347.2,100517,,*11
$GPGGA,013558,4047.719,N,11141.695,E,2,08,,1057,M,,M,,*58
纬度：4047.719
时间：013558
经度：11141.695
地面速率：000.0
地面航向：347.2
日期：100517
纬度：4047.719
时间：013558
经度：11141.695
状态：2
卫星数量：08
海拔高度：1057
结果：$GPRMC,013559,A,4047.719,N,11141.695,E,000.0,347.2,100517,,*10
$GPGGA,013559,4047.719,N,11141.695,E,2,08,,1057,M,,M,,*59
纬度：4047.719
时间：013559
经度：11141.695
地面速率：000.0
地面航向：347.2
日期：100517
纬度：4047.719
时间：013559
经度：11141.695
状态：2
卫星数量：08
海拔高度：1057
结果：$GPRMC,013600,A,4047.719,N,11141.695,E,000.0,347.2,100517,,*1F
$GPGGA,013600,4047.719,N,11141.695,E,2,09,,1057,M,,M,,*57
纬度：4047.719
时间：013600
经度：11141.695
地面速率：000.0
地面航向：347.2
日期：100517
纬度：4047.719
时间：013600
经度：11141.695
状态：2
卫星数量：09
海拔高度：1057
结果：$GPRMC,013601,A,4047.719,N,11141.695,E,000.0,347.2,100517,,*1E
$GPGGA,013601,4047.719,N,11141.695,E,2,09,,1057,M,,M,,*56
纬度：4047.719
时间：013601
经度：11141.695
地面速率：000.0
地面航向：347.2
日期：100517
纬度：4047.719
时间：013601
经度：11141.695
状态：2
卫星数量：09
海拔高度：1057
结果：$GPRMC,013602,A,4047.719,N,11141.695,E,000.0,347.2,100517,,*1D
$GPGGA,013602,4047.719,N,11141.695,E,2,09,,1057,M,,M,,*55
纬度：4047.719
时间：013602
经度：11141.695
地面速率：000.0
地面航向：347.2
日期：100517
纬度：4047.719
时间：013602
经度：11141.695
状态：2
卫星数量：09
海拔高度：1057
结果：$GPRMC,013603,A,4047.719,N,11141.695,E,000.0,347.2,100517,,*1C
$GPGGA,013603,4047.719,N,11141.695,E,2,08,,1057,M,,M,,*55
纬度：4047.719
时间：013603
经度：11141.695
地面速率：000.0
地面航向：347.2
日期：100517
纬度：4047.719
时间：013603
经度：11141.695
状态：2
卫星数量：08
海拔高度：1057
结果：$GPRMC,013604,A,4047.719,N,11141.695,E,000.0,347.2,100517,,*1B
$GPGGA,013604,4047.719,N,11141.695,E,2,08,,1057,M,,M,,*52
纬度：4047.719
时间：013604
经度：11141.695
地面速率：000.0
地面航向：347.2
日期：100517
纬度：4047.719
时间：013604
经度：11141.695
状态：2
卫星数量：08
海拔高度：1057
结果：$GPRMC,013605,A,4047.719,N,11141.695,E,000.0,347.2,100517,,*1A
$GPGGA,013605,4047.719,N,11141.695,E,2,08,,1057,M,,M,,*53
纬度：4047.719
时间：013605
经度：11141.695
地面速率：000.0
地面航向：347.2
日期：100517
纬度：4047.719
时间：013605
经度：11141.695
状态：2
卫星数量：08
海拔高度：1057
结果：$GPRMC,013606,A,4047.719,N,11141.695,E,000.0,347.2,100517,,*19
$GPGGA,013606,4047.719,N,11141.695,E,2,08,,1057,M,,M,,*50
纬度：4047.719
时间：013606
经度：11141.695
地面速率：000.0
地面航向：347.2
日期：100517
纬度：4047.719
时间：013606
经度：11141.695
状态：2
卫星数量：08
海拔高度：1057
结果：$GPRMC,013607,A,4047.719,N,11141.695,E,000.0,347.2,100517,,*18
$GPGGA,013607,4047.719,N,11141.695,E,2,08,,1057,M,,M,,*51
纬度：4047.719
时间：013607
经度：11141.695
地面速率：000.0
地面航向：347.2
日期：100517
纬度：4047.719
时间：013607
经度：11141.695
状态：2
卫星数量：08
海拔高度：1057
结果：$GPRMC,013608,A,4047.719,N,11141.695,E,000.0,347.2,100517,,*17
$GPGGA,013608,4047.719,N,11141.695,E,2,08,,1057,M,,M,,*5E
纬度：4047.719
时间：013608
经度：11141.695
地面速率：000.0
地面航向：347.2
日期：100517
纬度：4047.719
时间：013608
经度：11141.695
状态：2
卫星数量：08
海拔高度：1057
结果：$GPRMC,013609,A,4047.719,N,11141.695,E,000.0,347.2,100517,,*16
$GPGGA,013609,4047.719,N,11141.695,E,2,08,,1057,M,,M,,*5F
纬度：4047.719
时间：013609
经度：11141.695
地面速率：000.0
地面航向：347.2
日期：100517
纬度：4047.719
时间：013609
经度：11141.695
状态：2
卫星数量：08
海拔高度：1057
结果：$GPRMC,013610,A,4047.719,N,11141.695,E,000.0,347.2,100517,,*1E
$GPGGA,013610,4047.719,N,11141.695,E,2,08,,1057,M,,M,,*57
纬度：4047.719
时间：013610
经度：11141.695
地面速率：000.0
地面航向：347.2
日期：100517
纬度：4047.719
时间：013610
经度：11141.695
状态：2
卫星数量：08
海拔高度：1057
结果：$GPRMC,013611,A,4047.719,N,11141.695,E,000.0,347.2,100517,,*1F
$GPGGA,013611,4047.719,N,11141.695,E,2,08,,1057,M,,M,,*56
纬度：4047.719
时间：013611
经度：11141.695
地面速率：000.0
地面航向：347.2
日期：100517
纬度：4047.719
时间：013611
经度：11141.695
状态：2
卫星数量：08
海拔高度：1057
结果：$GPRMC,013612,A,4047.719,N,11141.695,E,000.0,347.2,100517,,*1C
$GPGGA,013612,4047.719,N,11141.695,E,2,08,,1057,M,,M,,*55
纬度：4047.719
时间：013612
经度：11141.695
地面速率：000.0
地面航向：347.2
日期：100517
纬度：4047.719
时间：013612
经度：11141.695
状态：2
卫星数量：08
海拔高度：1057
结果：$GPRMC,013613,A,4047.719,N,11141.695,E,000.0,347.2,100517,,*1D
$GPGGA,013613,4047.719,N,11141.695,E,2,08,,1057,M,,M,,*54
纬度：4047.719
时间：013613
经度：11141.695
地面速率：000.0
地面航向：347.2
日期：100517
纬度：4047.719
时间：013613
经度：11141.695
状态：2
卫星数量：08
海拔高度：1057
结果：$GPRMC,013614,A,4047.719,N,11141.695,E,000.0,347.2,100517,,*1A
$GPGGA,013614,4047.719,N,11141.695,E,2,08,,1057,M,,M,,*53
纬度：4047.719
时间：013614
经度：11141.695
地面速率：000.0
地面航向：347.2
日期：100517
纬度：4047.719
时间：013614
经度：11141.695
状态：2
卫星数量：08
海拔高度：1057
结果：$GPRMC,013615,A,4047.719,N,11141.695,E,000.0,347.2,100517,,*1B
$GPGGA,013615,4047.719,N,11141.695,E,2,08,,1057,M,,M,,*52
纬度：4047.719
时间：013615
经度：11141.695
地面速率：000.0
地面航向：347.2
日期：100517
纬度：4047.719
时间：013615
经度：11141.695
状态：2
卫星数量：08
海拔高度：1057
结果：$GPRMC,013616,A,4047.719,N,11141.695,E,000.0,347.2,100517,,*18
$GPGGA,013616,4047.719,N,11141.695,E,2,08,,1057,M,,M,,*51
纬度：4047.719
时间：013616
经度：11141.695
地面速率：000.0
地面航向：347.2
日期：100517
纬度：4047.719
时间：013616
经度：11141.695
状态：2
卫星数量：08
海拔高度：1057
结果：$GPRMC,013617,A,4047.719,N,11141.695,E,000.0,347.2,100517,,*19
$GPGGA,013617,4047.719,N,11141.695,E,2,08,,1057,M,,M,,*50
纬度：4047.719
时间：013617
经度：11141.695
地面速率：000.0
地面航向：347.2
日期：100517
纬度：4047.719
时间：013617
经度：11141.695
状态：2
卫星数量：08
海拔高度：1057
结果：$GPRMC,013618,A,4047.719,N,11141.695,E,000.0,347.2,100517,,*16
$GPGGA,013618,4047.719,N,11141.695,E,2,08,,1057,M,,M,,*5F
纬度：4047.719
时间：013618
经度：11141.695
地面速率：000.0
地面航向：347.2
日期：100517
纬度：4047.719
时间：013618
经度：11141.695
状态：2
卫星数量：08
海拔高度：1057
结果：$GPRMC,013619,A,4047.719,N,11141.695,E,000.0,347.2,100517,,*17
$GPGGA,013619,4047.719,N,11141.695,E,2,08,,1057,M,,M,,*5E
纬度：4047.719
时间：013619
经度：11141.695
地面速率：000.0
地面航向：347.2
日期：100517
纬度：4047.719
时间：013619
经度：11141.695
状态：2
卫星数量：08
海拔高度：1057
结果：$GPRMC,013620,A,4047.719,N,11141.695,E,000.0,347.2,100517,,*1D
$GPGGA,013620,4047.719,N,11141.695,E,2,08,,1057,M,,M,,*54
纬度：4047.719
时间：013620
经度：11141.695
地面速率：000.0
地面航向：347.2
日期：100517
纬度：4047.719
时间：013620
经度：11141.695
状态：2
卫星数量：08
海拔高度：1057
结果：$GPRMC,013621,A,4047.719,N,11141.695,E,000.0,347.2,100517,,*1C
$GPGGA,013621,4047.719,N,11141.695,E,2,08,,1057,M,,M,,*55
纬度：4047.719
时间：013621
经度：11141.695
地面速率：000.0
地面航向：347.2
日期：100517
纬度：4047.719
时间：013621
经度：11141.695
状态：2
卫星数量：08
海拔高度：1057
结果：$GPRMC,013622,A,4047.719,N,11141.695,E,000.0,347.2,100517,,*1F
$GPGGA,013622,4047.719,N,11141.695,E,2,08,,1057,M,,M,,*56
纬度：4047.719
时间：013622
经度：11141.695
地面速率：000.0
地面航向：347.2
日期：100517
纬度：4047.719
时间：013622
经度：11141.695
状态：2
卫星数量：08
海拔高度：1057
结果：$GPRMC,013623,A,4047.719,N,11141.695,E,000.0,347.2,100517,,*1E
$GPGGA,013623,4047.719,N,11141.695,E,2,08,,1057,M,,M,,*57
纬度：4047.719
时间：013623
经度：11141.695
地面速率：000.0
地面航向：347.2
日期：100517
纬度：4047.719
时间：013623
经度：11141.695
状态：2
卫星数量：08
海拔高度：1057
结果：$GPRMC,013624,A,4047.719,N,11141.695,E,000.0,347.2,100517,,*19
$GPGGA,013624,4047.719,N,11141.695,E,2,09,,1057,M,,M,,*51
纬度：4047.719
时间：013624
经度：11141.695
地面速率：000.0
地面航向：347.2
日期：100517
纬度：4047.719
时间：013624
经度：11141.695
状态：2
卫星数量：09
海拔高度：1057
结果：$GPRMC,013625,A,4047.719,N,11141.695,E,000.0,347.2,100517,,*18
$GPGGA,013625,4047.719,N,11141.695,E,2,08,,1057,M,,M,,*51
纬度：4047.719
时间：013625
经度：11141.695
地面速率：000.0
地面航向：347.2
日期：100517
纬度：4047.719
时间：013625
经度：11141.695
状态：2
卫星数量：08
海拔高度：1057
结果：$GPRMC,013626,A,4047.719,N,11141.695,E,000.0,347.2,100517,,*1B
$GPGGA,013626,4047.719,N,11141.695,E,2,09,,1057,M,,M,,*53
纬度：4047.719
时间：013626
经度：11141.695
地面速率：000.0
地面航向：347.2
日期：100517
纬度：4047.719
时间：013626
经度：11141.695
状态：2
卫星数量：09
海拔高度：1057
结果：$GPRMC,013627,A,4047.719,N,11141.695,E,000.0,347.2,100517,,*1A
$GPGGA,013627,4047.719,N,11141.695,E,2,09,,1057,M,,M,,*52
纬度：4047.719
时间：013627
经度：11141.695
地面速率：000.0
地面航向：347.2
日期：100517
纬度：4047.719
时间：013627
经度：11141.695
状态：2
卫星数量：09
海拔高度：1057
结果：$GPRMC,013628,A,4047.719,N,11141.695,E,000.0,347.2,100517,,*15
$GPGGA,013628,4047.719,N,11141.695,E,2,09,,1057,M,,M,,*5D
纬度：4047.719
时间：013628
经度：11141.695
地面速率：000.0
地面航向：347.2
日期：100517
纬度：4047.719
时间：013628
经度：11141.695
状态：2
卫星数量：09
海拔高度：1057
结果：$GPRMC,013629,A,4047.719,N,11141.695,E,000.0,347.2,100517,,*14
$GPGGA,013629,4047.719,N,11141.695,E,2,09,,1057,M,,M,,*5C
纬度：4047.719
时间：013629
经度：11141.695
地面速率：000.0
地面航向：347.2
日期：100517
纬度：4047.719
时间：013629
经度：11141.695
状态：2
卫星数量：09
海拔高度：1057
结果：$GPRMC,013630,A,4047.719,N,11141.695,E,000.0,347.2,100517,,*1C
$GPGGA,013630,4047.719,N,11141.695,E,2,10,,1057,M,,M,,*5C
纬度：4047.719
时间：013630
经度：11141.695
地面速率：000.0
地面航向：347.2
日期：100517
纬度：4047.719
时间：013630
经度：11141.695
状态：2
卫星数量：10
海拔高度：1057
结果：$GPRMC,013631,A,4047.719,N,11141.695,E,000.0,347.2,100517,,*1D
$GPGGA,013631,4047.719,N,11141.695,E,2,09,,1057,M,,M,,*55
纬度：4047.719
时间：013631
经度：11141.695
地面速率：000.0
地面航向：347.2
日期：100517
纬度：4047.719
时间：013631
经度：11141.695
状态：2
卫星数量：09
海拔高度：1057
结果：$GPRMC,013632,A,4047.719,N,11141.695,E,000.0,347.2,100517,,*1E
$GPGGA,013632,4047.719,N,11141.695,E,2,09,,1057,M,,M,,*56
纬度：4047.719
时间：013632
经度：11141.695
地面速率：000.0
地面航向：347.2
日期：100517
纬度：4047.719
时间：013632
经度：11141.695
状态：2
卫星数量：09
海拔高度：1057
结果：$GPRMC,013633,A,4047.719,N,11141.695,E,000.0,347.2,100517,,*1F
$GPGGA,013633,4047.719,N,11141.695,E,2,09,,1057,M,,M,,*57
纬度：4047.719
时间：013633
经度：11141.695
地面速率：000.0
地面航向：347.2
日期：100517
纬度：4047.719
时间：013633
经度：11141.695
状态：2
卫星数量：09
海拔高度：1057
结果：$GPRMC,013634,A,4047.719,N,11141.695,E,000.0,347.2,100517,,*18
$GPGGA,013634,4047.719,N,11141.695,E,2,09,,1057,M,,M,,*50
纬度：4047.719
时间：013634
经度：11141.695
地面速率：000.0
地面航向：347.2
日期：100517
纬度：4047.719
时间：013634
经度：11141.695
状态：2
卫星数量：09
海拔高度：1057
结果：$GPRMC,013635,A,4047.719,N,11141.695,E,000.0,347.2,100517,,*19
$GPGGA,013635,4047.719,N,11141.695,E,2,09,,1057,M,,M,,*51
纬度：4047.719
时间：013635
经度：11141.695
地面速率：000.0
地面航向：347.2
日期：100517
纬度：4047.719
时间：013635
经度：11141.695
状态：2
卫星数量：09
海拔高度：1057
结果：$GPRMC,013636,A,4047.719,N,11141.695,E,000.0,347.2,100517,,*1A
$GPGGA,013636,4047.719,N,11141.695,E,2,09,,1057,M,,M,,*52
纬度：4047.719
时间：013636
经度：11141.695
地面速率：000.0
地面航向：347.2
日期：100517
纬度：4047.719
时间：013636
经度：11141.695
状态：2
卫星数量：09
海拔高度：1057
结果：$GPRMC,013637,A,4047.719,N,11141.695,E,000.0,347.2,100517,,*1B
$GPGGA,013637,4047.719,N,11141.695,E,2,09,,1057,M,,M,,*53
纬度：4047.719
时间：013637
经度：11141.695
地面速率：000.0
地面航向：347.2
日期：100517
纬度：4047.719
时间：013637
经度：11141.695
状态：2
卫星数量：09
海拔高度：1057
结果：$GPRMC,013638,A,4047.719,N,11141.695,E,000.0,347.2,100517,,*14
$GPGGA,013638,4047.719,N,11141.695,E,2,09,,1057,M,,M,,*5C
纬度：4047.719
时间：013638
经度：11141.695
地面速率：000.0
地面航向：347.2
日期：100517
纬度：4047.719
时间：013638
经度：11141.695
状态：2
卫星数量：09
